pKey,JobStartDate,JobEndDate,APINumber,StateNumber,CountyNumber,OperatorName,WellName,Latitude,Longitude,Projection,TVD,TotalBaseWaterVolume,TotalBaseNonWaterVolume,StateName,CountyName,FFVersion,FederalWell,IndianWell,Source,DTMOD
a2a876d8-a139-4880-8884-814afb24f790,1/26/2011 12:00:00 AM,1/26/2011 12:00:00 AM,25083228630000,25,83,"EOG Resources, Inc.",Ruffatto 03-3130H,47.955618,-104.92615,NAD27,,,,Montana,Richland,1,False,False,,
e1c6c3f6-c37d-411b-be8a-3bb3db429b4c,2/3/2011 12:00:00 AM,2/3/2011 12:00:00 AM,25083228660000,25,83,Statoil Oil & Gas LP,Johnson 30-19 #1H,47.581162,-104.084185,NAD83,,,,Montana,Richland,1,False,False,,
25c0dd0d-87ee-43c6-8ab9-5a373aab94db,2/8/2011 12:00:00 AM,2/8/2011 12:00:00 AM,25083228500000,25,83,XTO Energy/ExxonMobil,Thiel 11X-12,47.685967,-104.096764,NAD83,,,,Montana,Richland,1,False,False,,
10f52073-fdaf-41cb-8d07-0e4cb984eb35,5/9/2011 12:00:00 AM,5/9/2011 12:00:00 AM,25083228540000,25,83,XTO Energy/ExxonMobil,Witt 13X-25,47.724986,-104.226783,NAD83,,,,Montana,Richland,1,False,False,,
5beb2ac5-934e-426c-a674-ab7cd1c599b0,6/17/2011 12:00:00 AM,6/17/2011 12:00:00 AM,25083228690000,25,83,Statoil Oil & Gas LP,Storvik 7-6 #1H,48.015014,-104.140961,NAD83,,,,Montana,Richland,1,False,False,,
18e9882f-d61b-4b9a-8a6c-a2f1b9838dd0,6/30/2011 12:00:00 AM,6/30/2011 12:00:00 AM,25035221590000,25,35,Newfield Exploration,Tribal Sacred Pipe 1-21,48.782194,-112.786611,NAD83,,,,Montana,Glacier,1,False,False,,
99d576b7-dae6-46f5-9a90-27487cba5613,7/6/2011 12:00:00 AM,7/6/2011 12:00:00 AM,25085217670000,25,85,"EOG Resources, Inc.",Stateline 05-1003H,48.188016,-104.07553,NAD27,,,,Montana,Roosevelt,1,False,False,,
9a2a7785-42e2-4f93-86dc-d61715526f26,7/12/2011 12:00:00 AM,7/12/2011 12:00:00 AM,25091218780000,25,91,"TAQA North USA, Inc.",KROWEN 23-12H,48.942553,-104.177731,WGS84,,,,Montana,Sheridan,1,False,False,,
84055506-ab03-4242-81d8-009816ec41b1,7/21/2011 12:00:00 AM,7/21/2011 12:00:00 AM,25083228700000,25,83,XTO Energy/ExxonMobil,Thiel 2 11X-12,47.686258,-104.096336,NAD83,,,,Montana,Richland,1,False,False,,
19dae3b8-b8db-4c99-93ac-3ccde7f63b1d,7/29/2011 12:00:00 AM,7/29/2011 12:00:00 AM,25035221670000,25,35,Newfield Exploration,Tribal Rumney 1-21H,48.944153,-113.041272,NAD83,,,,Montana,Glacier,1,False,False,,
103e92be-628d-46ac-9315-61b6cd926c83,8/1/2011 12:00:00 AM,8/1/2011 12:00:00 AM,25035221290000,25,35,Newfield Exploration,Peacemaker 1-5H,48.655472,-112.426278,NAD83,,,,Montana,Glacier,1,False,False,,
e1303f65-28be-410d-a69c-d21287524cd4,8/1/2011 12:00:00 AM,8/1/2011 12:00:00 AM,25091218800000,25,91,"TAQA North USA, Inc.",TAQA HELLEGAARD 8-8H,48.977753,-104.223653,WGS84,,,,Montana,Sheridan,1,False,False,,
7a47eca6-5a98-42dd-97fd-e76b1ad432c5,8/3/2011 12:00:00 AM,8/3/2011 12:00:00 AM,25035221630000,25,35,Newfield Exploration,Tribal Buffalo Jump 1-28H,48.768386,-113.041272,NAD83,,,,Montana,Glacier,1,False,False,,
d66ea042-bf40-4948-a0e9-745d9f1df2d8,8/9/2011 12:00:00 AM,8/9/2011 12:00:00 AM,25091218770000,25,91,"TAQA North USA, Inc.",WARD 12-5H,48.97935,-104.15565,WGS84,,,,Montana,Sheridan,1,False,False,,
331d6e82-1490-49a5-9bd6-fd3e4ee75a63,8/11/2011 12:00:00 AM,8/11/2011 12:00:00 AM,25083225930000,25,83,Statoil Oil & Gas LP,State Hardy 31-16 #1H,47.92371388,-104.103675,NAD83,,,,Montana,Richland,1,False,False,,
be22977b-b236-4fe3-86d1-de013882faab,8/16/2011 12:00:00 AM,8/16/2011 12:00:00 AM,25085217600000,25,85,"EOG Resources, Inc.",Stateline 01-2423H,48.159485,-104.04619,NAD27,,,,Montana,Roosevelt,1,False,False,,
5dca1c92-cb00-4959-ad92-7c8eeb3500ec,8/17/2011 12:00:00 AM,8/17/2011 12:00:00 AM,25091218790000,25,91,"TAQA North USA, Inc.",WESTGARD 5-5H,48.997386,-104.111789,WGS84,,,,Montana,Sheridan,1,False,False,,
46a4ecac-d0c0-4e00-a9d8-9658c7ae4a2c,8/22/2011 12:00:00 AM,8/22/2011 12:00:00 AM,25085217690000,25,85,"EOG Resources, Inc.",Stateline 10-1211H,48.188303,-104.04768,NAD27,,,,Montana,Roosevelt,1,False,False,,
8912a832-71d1-4265-9be6-bba9b1244e28,8/24/2011 12:00:00 AM,8/24/2011 12:00:00 AM,25083228750000,25,83,XTO Energy/ExxonMobil,Sherlock 13X-24,47.7373,-104.2269,NAD83,,,,Montana,Richland,1,False,False,,
62c5d117-6a17-4a9e-bb63-a7c74b096b1f,8/28/2011 12:00:00 AM,8/28/2011 12:00:00 AM,25091218880000,25,91,"TAQA North USA, Inc.",KAVON 17-16H,48.955919,-104.355581,WGS84,,,,Montana,Sheridan,1,False,False,,
cbd61820-0f0b-4e42-b5e4-1884447042aa,8/29/2011 12:00:00 AM,8/29/2011 12:00:00 AM,25091218830000,25,91,"TAQA North USA, Inc.",BOLKE 18-4H',48.966553,-104.265611,WGS84,,,,Montana,Sheridan,1,False,False,,
46869b54-6403-49d6-9368-458af6989e23,8/31/2011 12:00:00 AM,8/31/2011 12:00:00 AM,25091218820000,25,91,"TAQA North USA, Inc.",STATE 16-4H,48.966056,-104.221711,WGS84,,,,Montana,Sheridan,1,False,False,,
29f49dae-63f8-424c-9029-ac57ec2ce46c,9/7/2011 12:00:00 AM,9/7/2011 12:00:00 AM,25083228790000,25,83,"Continental Resources, Inc",Cochrane 1-11H,47.926124,-104.5876295,NAD27,,,,MT,Richland,1,False,False,,
a0392020-3d85-4692-b175-750a82a37fbc,9/9/2011 12:00:00 AM,9/9/2011 12:00:00 AM,25083228810000,25,83,"Continental Resources, Inc",Denman 1-7H,48.0135298,-104.8037121,NAD27,,,,MT,Richland,1,False,False,,
97a4cb8f-f753-43e9-9577-964a78474b3c,9/14/2011 12:00:00 AM,9/14/2011 12:00:00 AM,25035221730000,25,35,Anschutz Exploration Corporation,Southwest Browning 1-8H,48.33944,-113.3462,NAD83,,,,Montana,Glacier,1,False,False,,
e2348ce7-33fc-4cb2-9958-517f5ce64f52,9/16/2011 12:00:00 AM,9/16/2011 12:00:00 AM,25085217920000,25,85,Whiting Petroleum,Johnson 21-25 H,48.330708,-104.381519,NAD83,,,,Montana,Roosevelt,1,False,False,,
e67fc23f-da25-4ca8-bf86-7690fe172d34,9/18/2011 12:00:00 AM,9/18/2011 12:00:00 AM,25083228870000,25,83,Statoil Oil & Gas LP,Glenn 33-28 #1H,47.8959919548203,-104.2283318,NAD83,,,,Montana,Richland,1,False,False,,
f66d1bd6-c922-4ce9-a2af-8aa36fc06885,9/25/2011 12:00:00 AM,9/25/2011 12:00:00 AM,25085217940000,25,85,Whiting Petroleum,French 21-30 TFH,48.243567,-104.489019,NAD83,,,,Montana,Roosevelt,1,False,False,,
70a084a9-2a5f-43db-a311-06fd3ec1fd04,9/26/2011 12:00:00 AM,9/26/2011 12:00:00 AM,25083228910000,25,83,"Continental Resources, Inc",Peterson 1-18H,48.0118545,-104.6629478,NAD27,,,,MT,Richland,1,False,False,,
d0ae2ae1-9899-40a2-8a0a-ecc855e8f209,9/28/2011 12:00:00 AM,9/28/2011 12:00:00 AM,25085217610000,25,85,"EOG Resources, Inc.",Stateline 04-2625H,48.147942,-104.07118,NAD27,,,,Montana,Roosevelt,1,False,False,,
a5855240-05ed-47e8-bb9e-7fcb71a5160b,9/29/2011 12:00:00 AM,9/29/2011 12:00:00 AM,25083228800000,25,83,"Continental Resources, Inc",Thelma 2-14H,47.9248484,-104.5715888,NAD27,,,,MT,Richland,1,False,False,,
8044d6a2-507f-46cd-a8d0-feb7bb466391,10/4/2011 12:00:00 AM,10/4/2011 12:00:00 AM,25083228560000,25,83,"Slawson Exploration Company, Inc.",Scoundrel #1-8H,47.761968,-104.936863,NAD83,,,,Montana,Richland,1,False,False,,
92259090-31eb-4dbe-8c17-1232f4b01f39,10/15/2011 12:00:00 AM,10/15/2011 12:00:00 AM,25085217880000,25,85,"G3 Operating, LLC.",Olson 1-21-16H,48.2451341918777,-104.321873743074,NAD83,,,,Montana,Roosevelt,1,False,False,,
16ac493d-db00-4737-979b-09871b62385e,10/16/2011 12:00:00 AM,10/16/2011 12:00:00 AM,25035221820000,25,35,Anschutz Exploration Corporation,Pine Ridge 2-26,48.850357,-113.263868,NAD83,,,,Montana,Glacier,1,False,False,,
8431bfc5-0992-4959-ba04-43d35be880ae,10/16/2011 12:00:00 AM,10/16/2011 12:00:00 AM,25035221830000,25,35,Rosetta Resources,Fee Simonson 3608-34-01H,48.8407290067,-112.627207713,WGS84,,,,Montana,Glacier,1,False,False,,
791f24b9-636e-4d69-b6f7-df9893f30fd4,10/20/2011 12:00:00 AM,10/20/2011 12:00:00 AM,25035221790000,25,35,Rosetta Resources,Tribal Riverbend 3609-07-04H,48.8982508235,-112.84206783,WGS84,,,,Montana,Glacier,1,False,False,,
a26b233f-00ec-492b-9ec1-9fe841abeb4f,10/23/2011 12:00:00 AM,10/23/2011 12:00:00 AM,25035221840000,25,35,Rosetta Resources,Tribal Big Rock 3706-29-13H,48.9297568227,-112.429929955,WGS84,,,,Montana,Glacier,1,False,False,,
9dc058f8-bac3-484a-a44e-eb0276e85c39,10/30/2011 12:00:00 AM,10/30/2011 12:00:00 AM,25085218020000,25,85,"Slawson Exploration Company, Inc.",Squadron 1-15-14H,48.010769,-104.091492,WGS84,,,,MT,Roosevelt,1,False,False,,
b8b67108-5bfa-4c75-9e95-3a47395badba,11/3/2011 12:00:00 AM,11/3/2011 12:00:00 AM,25085218060000,25,85,"Slawson Exploration Company, Inc.",Citadel 2-11-2H,48.013408,-104.070814,WGS84,,,,MT,Roosevelt,1,False,False,,
91c8546d-6f8a-478e-9c90-6aa0b9f78757,11/7/2011 12:00:00 AM,11/7/2011 12:00:00 AM,25083222870000,25,83,XTO Energy/ExxonMobil,Christiansen 14X-9,47.762378,-104.288881,NAD83,,,,Montana,Richland,1,False,False,,
1fd563d4-dec6-4249-9d81-50c042f92227,11/7/2011 12:00:00 AM,11/7/2011 12:00:00 AM,25083226470000,25,83,"Continental Resources, Inc",Reimann 2-35H,47.74448391,-104.6177792,NAD27,,,,MT,Richland,1,False,False,,
7a268ca3-3f06-4ef4-b157-da7d0c90ba19,11/10/2011 12:00:00 AM,11/10/2011 12:00:00 AM,25083228880000,25,83,"Continental Resources, Inc",Jeannette 2-11H,47.7749876,-104.7460243,NAD27,,,,MT,Richland,1,False,False,,
d8c56322-40ca-4dd6-ac31-d4e35e2e08a5,11/15/2011 12:00:00 AM,11/15/2011 12:00:00 AM,25083228890000,25,83,"Continental Resources, Inc",Harold 1-14H,48.00119504,-104.7042783,NAD27,,,,MT,Richland,1,False,False,,
83063b75-499c-4177-aa13-5acccd0da27d,11/19/2011 12:00:00 AM,11/19/2011 12:00:00 AM,25087217300000,25,87,Cirque Resources LP,Rock Happy 33-3H-2,46.66774028,-107.7053144,NAD83,,,,Montana,Rosebud,1,False,False,,
89868756-bdab-430b-b5b0-79e6f4adfb84,11/28/2011 12:00:00 AM,11/28/2011 12:00:00 AM,25065218830000,25,65,Cirque Resources LP,Hit Parade 31-3H,46.681974,-108.001392,Nad83,,,,Montana,Musselshell County,1,False,False,,
a16d9b10-0f5a-4651-be93-a09a81dbd335,12/2/2011 12:00:00 AM,12/2/2011 12:00:00 AM,25085218100000,25,85,Oasis Petroleum,Brewer 2759 13-15H,48.098422,-104.082256,NAD27,,,,Montana,Roosevelt,1,False,False,,
b3a28fb7-3236-4c0f-b148-ebb7698397dc,12/11/2011 12:00:00 AM,12/11/2011 12:00:00 AM,25085218050000,25,85,Statoil Oil & Gas LP,Hawkins 29-32-1H,48.156225,-104.39034167,NAD83,,,,Montana,Roosevelt,1,False,False,,
aead3002-8db9-442d-8714-763540ceb43f,12/21/2011 12:00:00 AM,12/21/2011 12:00:00 AM,25083228990000,25,83,"Continental Resources, Inc",Jane 1-4H,47.9411375,-104.6130504,NAD27,,,,MT,Richland,1,False,False,,
ec3e8304-78c4-4bae-848b-081d9b9ecd02,12/29/2011 12:00:00 AM,12/29/2011 12:00:00 AM,25083228980000,25,83,"Continental Resources, Inc",Ripley 1-24H,47.98435,-104.68829,NAD27,,,,MT,Richland,1,False,False,,
b9c660d3-6693-4e7f-97df-8360e2852cc6,1/9/2012 12:00:00 AM,1/9/2012 12:00:00 AM,25083229000000,25,83,"Continental Resources, Inc",Slocum 1-8H,48.02686,-104.90154,NAD27,,,,MT,Richland,1,False,False,,
048349f6-a95b-44b9-aa68-e8b3e503e268,1/9/2012 12:00:00 AM,1/9/2012 12:00:00 AM,25085217700000,25,85,"EOG Resources, Inc.",Stateline 07-2116H,48.157992,-104.09805,NAD83,,,,Montana,Roosevelt,1,False,False,,
a07845d2-7d39-4cd2-a7d3-f43473e04721,1/13/2012 12:00:00 AM,1/13/2012 12:00:00 AM,25085217680000,25,85,"EOG Resources, Inc.",Stateline 09-0201H,48.205761,-104.0705,NAD83,,,,Montana,Roosevelt,1,False,False,,
acbde0de-ccab-46c7-8d4e-faad75d38e15,1/19/2012 12:00:00 AM,1/19/2012 12:00:00 AM,25083228940000,25,83,"Slawson Exploration Company, Inc.",Rover 1-20H,47.745961,-104.954489,WGS84,,,,MT,Richland,1,False,False,,
d762b62e-f7d3-40d2-a8c0-81791621fdac,1/19/2012 12:00:00 AM,1/19/2012 12:00:00 AM,25085218280000,25,85,Oasis Petroleum,Halvorson 2759 13-29H,48.0689368292744,-104.124447373686,NAD27,,,,Montana,Roosevelt,1,False,False,,
a79cc897-a671-4eda-9f92-a7a8d3c959a9,1/23/2012 12:00:00 AM,1/23/2012 12:00:00 AM,25083229110000,25,83,"Continental Resources, Inc",Calvin 1-33H,47.95522,-104.62466,NAD27,,,,MT,Richland,1,False,False,,
bbdb8c2c-3d7a-400b-a6f4-c68f56c05092,1/25/2012 12:00:00 AM,1/25/2012 12:00:00 AM,25083229030000,25,83,"Slawson Exploration Company, Inc.",Cutthroat 1-22H,47.732828,-104.908178,WGS84,,,,MT,Richland,1,False,False,,
119ecddb-d782-484b-9794-f7c775bba62f,1/29/2012 12:00:00 AM,1/29/2012 12:00:00 AM,25083228950000,25,83,Statoil Oil & Gas LP,Voss 11-14-2H,47.9389711,-104.05805083,NAD83,,,,Montana,Richland,1,False,False,,
58b9c207-7906-45a6-bed6-5eab41855d32,2/2/2012 12:00:00 AM,2/2/2012 12:00:00 AM,25083228970000,25,83,Whiting Petroleum,Barter 21-3H,47.953639,-104.345903,NAD83,,,,Montana,Richland,1,False,False,,
1c1b59f5-4d91-41ec-bfbb-96981911801c,2/5/2012 12:00:00 AM,2/5/2012 12:00:00 AM,25083229130000,25,83,"Continental Resources, Inc",Farnsworth 1-18H,48.01168,-104.79214,NAD27,,,,MT,Richland,1,False,False,,
79b36532-8d73-4e2a-94f2-6d4ce89e439a,2/9/2012 12:00:00 AM,2/9/2012 12:00:00 AM,25091218910000,25,91,Marathon Oil,Wegner 34-11H,48.44861,-104.1362,NAD83,,,,Montana,Sheridan,1,False,False,,
fddcb30f-a743-4b46-bccf-83d3091e2930,2/13/2012 12:00:00 AM,2/13/2012 12:00:00 AM,25085218140000,25,85,"Samson Oil and Gas Montana, Inc.",Australia II 12 KA 6,48.15727,-104.65116,NAD83,,,,Montana,Roosevelt County,1,False,False,,
f7f72230-472f-457e-8b91-65eaa75704e5,2/13/2012 12:00:00 AM,2/13/2012 12:00:00 AM,25085218270000,25,85,Oasis Petroleum,Signal Butte,48.100122,-104.234406,NAD27,10267.0,2623895.0,,Montana,Roosevelt,2,False,False,,
49fdccb5-ba4e-476e-a6ea-f85e3788e66f,2/14/2012 12:00:00 AM,2/14/2012 12:00:00 AM,25083229270000,25,83,"Continental Resources, Inc",Sharon 1-3H,47.5676367,-104.3617989,NAD27,,,,MT,Richland,1,False,False,,
fa351e7d-40c6-4c17-b0ce-7ac0c94f3c1a,2/16/2012 12:00:00 AM,2/16/2012 12:00:00 AM,25033211620000,25,33,Cirque Resources LP,Lucky Strike 10-4H,46.908791667,-107.6509694,NAD83,,,,Montana,Garfield,1,False,False,,
8d062734-6c55-4e8b-afdb-0a49d2a23e5c,2/20/2012 12:00:00 AM,2/20/2012 12:00:00 AM,25083228820000,25,83,XTO Energy/ExxonMobil,Panasuk 34X-12,47.762444,-104.211817,NAD83,,,,North Dakota,Richland,1,False,False,,
ca1e66b2-aae1-499c-a273-828503f071ed,2/21/2012 12:00:00 AM,2/21/2012 12:00:00 AM,25083229230000,25,83,"Continental Resources, Inc",Potts 1-11H,48.01121,-104.70993,NAD83,,,,MT,Richland,1,False,False,,
265f0b95-e5e9-41b1-a950-d2d52479d1b8,2/27/2012 12:00:00 AM,2/27/2012 12:00:00 AM,25087217310000,25,87,Fidelity Exploration & Production,Schmidt 44-27,46.67207849,-107.548251249,NAD83,,,,Montana,Rosebud,1,False,False,,
a8837f1d-9c01-4984-8db6-0aa548ee784e,3/1/2012 12:00:00 AM,3/1/2012 12:00:00 AM,25085218360000,25,85,Oasis Petroleum,Ella Marie 2759 42-9H,48.1000222838688,-104.106819036799,NAD27,,,,Montana,Roosevelt,1,False,False,,
97746486-0676-4f46-8d65-dd2b1b7bf636,3/6/2012 12:00:00 AM,3/6/2012 12:00:00 AM,25085217780000,25,85,Statoil Oil & Gas LP,Crusch 12-1 #1H,48.1872278,-104.1657361,NAD83,,,,Montana,Roosevelt,1,False,False,,
10dbb3e6-70af-45ce-8d1b-c203f8d78a30,3/8/2012 12:00:00 AM,3/8/2012 12:00:00 AM,25085218010000,25,85,Whiting Petroleum,Schnitzler 34-24TFH,48.35810935,-104.3742063,NAD83,,,,Montana,Roosevelt,1,False,False,,
af4b516f-8ef9-4baf-95a1-a248fc048e76,3/9/2012 12:00:00 AM,3/9/2012 12:00:00 AM,25083228120000,25,83,"Slawson Exploration Company, Inc.",Vandal 1-16H,47.760319,-104.92985,WGS84,9324.0,618510.0,,North Dakota,,1,False,False,,
5ec0cc7c-751d-48f6-9e79-68e03f877f6b,3/13/2012 12:00:00 AM,3/13/2012 12:00:00 AM,25085218120000,25,85,Oasis Petroleum,Piercy Federal 2758 13-5H,48.127683,-104.256206,NAD83,10200.0,2072910.0,,Montana,Roosevelt,2,False,False,,
d6c5f11f-6a8b-4e72-8e17-d92e2f1b1d7e,3/20/2012 12:00:00 AM,3/20/2012 12:00:00 AM,25085217720000,25,85,"EOG Resources, Inc.",Diamond 2-3625H,48.217378,-104.3701,NAD83,,,,Montana,Roosevelt,1,False,False,,
fcbc1b5d-b41e-49b8-87e1-5181485e33b2,3/26/2012 12:00:00 AM,3/26/2012 12:00:00 AM,25085218210000,25,85,"Samson Oil and Gas Montana, Inc.",Gretel II 12 KA 3,48.16021,-104.85313,NAD83,,,,Montana,Roosevelt,1,False,False,,
2e0b10ae-4add-4f21-898c-af762974b04a,3/27/2012 12:00:00 AM,3/27/2012 12:00:00 AM,25083229190000,25,83,"Slawson Exploration Company, Inc.",Villain 1-12H,47.775196636,-104.98160426,WGS84,,,,Montana,Richland,1,False,False,,
0d4326d9-3c6b-4743-926c-2cbcc720d014,3/27/2012 12:00:00 AM,3/27/2012 12:00:00 AM,25083229220000,25,83,XTO Energy/ExxonMobil,Peterson 42X-18,47.755603,-104.185953,NAD83,,,,Montana,Richland,1,False,False,,
68485150-c398-47f7-9afc-5ac291cf297c,3/31/2012 12:00:00 AM,3/31/2012 12:00:00 AM,25083224030000,25,83,SM Energy,Sunwall 12-8H,47.7671222,-104.311939,NAD83,,,,Montana,Richland,1,False,False,,
6b5e3696-0438-41d3-8aeb-7947f7972882,3/31/2012 12:00:00 AM,3/31/2012 12:00:00 AM,25083225350000,25,83,SM Energy,Qualley 10-8H,47.6785444,-104.299681,NAD83,,,,Montana,Richland,1,False,False,,
9ae4f2bc-5f14-4048-ac33-b9decdc77535,3/31/2012 12:00:00 AM,3/31/2012 12:00:00 AM,25083229390000,25,83,Oasis Petroleum,Olson Bottoms Federal 2658 12-10H,48.026494,-104.215597,NAD83,,,,Montana,Richland,1,False,False,,
aa62c404-2429-4a7a-a589-b23b2a7fba60,3/31/2012 12:00:00 AM,3/31/2012 12:00:00 AM,25085229390000,25,85,Oasis Petroleum,Olson Bottoms 12-10H,48.026494,-104.215597,NAD83,,,,Montana,Richland,1,False,False,,
555b6a29-4284-4e2f-a51d-7c6064c80e50,4/3/2012 12:00:00 AM,4/3/2012 12:00:00 AM,25083229140000,25,83,"Continental Resources, Inc",Abercrombie 1-10H,48.10004,-104.85907,NAD27,,,,MT,Richland,1,False,False,,
89e5786c-c85d-402e-ba3c-c5196ade2a79,4/5/2012 12:00:00 AM,4/5/2012 12:00:00 AM,25085217650000,25,85,"EOG Resources, Inc.",Stateline 03-1522H,48.185611,-104.078112,NAD83,,,,Montana,Roosevelt,1,False,False,,
91c37756-cbb5-42ad-8691-1451b6a2d1fb,4/10/2012 12:00:00 AM,4/10/2012 12:00:00 AM,25085217640000,25,85,"EOG Resources, Inc.",Stateline 11-1314H,48.173985,-104.046205,NAD83,,,,Montana,Roosevelt,1,False,False,,
d2db2245-e47e-4143-8d5b-2924fcbeccb0,4/12/2012 12:00:00 AM,4/12/2012 12:00:00 AM,25083229120000,25,83,"Continental Resources, Inc",Shevlin 1-20H,47.74506,-104.68754,NAD27,,,,Montana,Richland County,1,False,False,,
a32ea2e2-afed-404b-8d62-675630e78ac6,4/12/2012 12:00:00 AM,4/12/2012 12:00:00 AM,25083229450000,25,83,"Slawson Exploration Company, Inc.",Rogue 1-36H,47.791718628,-104.981082077,WGS84,,,,Montana,Richland,1,False,False,,
02c67b43-fd28-47d6-bd62-3a60c070f48e,4/14/2012 12:00:00 AM,4/14/2012 12:00:00 AM,25083229160000,25,83,Statoil Oil & Gas LP,Verrene 15-22 1TF H,47.9248276,-104.2095307,NAD83,,,,Montana,Richland,1,False,False,,
38b7a1b1-9db6-4b22-956d-d776f3a2fb67,4/16/2012 12:00:00 AM,4/16/2012 12:00:00 AM,25083229090000,25,83,"Slawson Exploration Company, Inc.",Dart (Federal) 1-30H,47.556359893,-104.203704561,WGS84,,,,Montana,Richland,1,False,False,,
e82e5e2e-bf8e-4d27-9218-55d504af5b2b,4/16/2012 12:00:00 AM,4/16/2012 12:00:00 AM,25083229250000,25,83,"Continental Resources, Inc",Lucille 2-27H,47.71818,-104.64375,NAD27,,,,Montana,Richland County,1,False,False,,
499e0ee9-4efb-49ed-934e-072bd8060eec,4/16/2012 12:00:00 AM,4/16/2012 12:00:00 AM,25083229320000,25,83,XTO Energy/ExxonMobil,Beagle 12X-17,47.755489,-104.183717,NAD83,,,,Montana,Richland,1,False,False,,
03c6d58d-666c-4c16-90df-ebc79625c452,4/17/2012 12:00:00 AM,4/17/2012 12:00:00 AM,25091218970000,25,91,Samson,Zuma 15-22-35-58H,48.766597,-104.110017,NAD83,,,,Montana,Sheridan,1,False,False,,
5a817e6f-2a11-478f-a57a-9cf97bf42926,4/18/2012 12:00:00 AM,4/18/2012 12:00:00 AM,25083229180000,25,83,Whiting Petroleum,State 21-28H,47.9,-104.37,NAD83,,,,Montana,Richland,1,False,False,,
474480f4-a8a7-4847-87c6-995e0abdb3ff,4/23/2012 12:00:00 AM,4/23/2012 12:00:00 AM,25083229080000,25,83,"Slawson Exploration Company, Inc.",Android-6H,47.7772181851951,-104.960679812,WGS84,,,,Montana,Richland,1,False,False,,
78c6c6d6-e32f-4608-ad82-31473b7c231f,4/25/2012 12:00:00 AM,4/25/2012 12:00:00 AM,25085218400000,25,85,Oasis Petroleum,Ray T Federal 13-26H,48.243872,-104.137375,NAD27,,,,MT,Roosevelt,1,False,False,,
22942bbf-5b19-4b8e-82e7-114430033674,4/27/2012 12:00:00 AM,4/27/2012 12:00:00 AM,25083229280000,25,83,"Slawson Exploration Company, Inc.",Desperado (Federal) 1-2H,47.78953951,-105.018249437,WGS84,,,,Montana,Richland,1,False,False,,
ae0fd8cf-ade0-46df-a49a-43ba8ccc9cde,4/27/2012 12:00:00 AM,4/27/2012 12:00:00 AM,25085217790000,25,85,Oasis Petroleum,Wilson Federal 14-23H,48.0977753,-104.069636,NAD83,,,,Montana,Roosevelt,1,False,False,,
5e040fa9-d514-4bcb-aa38-a34802ee7389,4/29/2012 12:00:00 AM,4/29/2012 12:00:00 AM,25083229400000,25,83,Fidelity Exploration & Production,Bouchard 34-21H,47.6465363,-104.4059365,NAD83,,,,Montana,Richland,1,False,False,,
e3640cc5-2acf-4131-bd67-de519dbdc69f,4/30/2012 12:00:00 AM,4/30/2012 12:00:00 AM,25091219010000,25,91,"TAQA North USA, Inc.",Flat Lake 11-13H,48.969783,-104.177483,WGS84,7771.0,369833.0,,Montana,Sheridan,1,False,False,,
8f36c61b-18c8-4f86-b707-70cb31bbc1e2,5/3/2012 12:00:00 AM,5/3/2012 12:00:00 AM,25091219050000,25,91,"TAQA North USA, Inc.",Hjelm 13-1H,48.967142,-104.135861,NAD83,7778.0,376672.0,,Montana,Sheridan,1,False,False,,
ffe88772-4451-445f-b7cd-9f251f9e1d95,5/7/2012 12:00:00 AM,5/7/2012 12:00:00 AM,25091219020000,25,91,Samson,Riva Ridge 6-7-33-56H,48.649197,-104.437639,NAD27,,,,Montana,Sheridan,1,False,False,,
e647c80c-f23a-44df-a02a-2df1a131005a,5/8/2012 12:00:00 AM,5/8/2012 12:00:00 AM,25085218390000,25,85,Oasis Petroleum,Sam 12-17H,48.185944,-104.259303,NAD27,,,,Montana,Roosevelt,1,False,False,,
b0da9528-d4fc-4410-88b2-6b0a687b4c1a,5/9/2012 12:00:00 AM,5/9/2012 12:00:00 AM,25091218840000,25,91,"TAQA North USA, Inc.",KROWEN 14-4H,48.966056,-104.177606,WGS84,7743.0,313205.0,,Montana,Sheridan,1,False,False,,
258ce85d-6b00-4dae-a397-fa98a5e68607,5/14/2012 12:00:00 AM,5/14/2012 12:00:00 AM,25083229370000,25,83,"Continental Resources, Inc",Conaway 1-19H,47.8972,-104.41028,NAD27,,,,MT,Richland,1,False,False,,
5bea6038-2f04-48da-8a57-760dfac259cc,5/15/2012 12:00:00 AM,5/15/2012 12:00:00 AM,25085218320000,25,85,Oasis Petroleum,Catherine 12-17H,48.098831,-104.129014,NAD83,,,,Montana,Roosevelt,1,False,False,,
9e1a78b8-c101-4c73-8b07-64fffff18d02,5/17/2012 12:00:00 AM,5/17/2012 12:00:00 AM,25083229310000,25,83,Whiting Petroleum,Hackley 21-30H,47.98,-104.41,NAD83,,,,Montana,Richland,1,False,False,,
46e05c11-bc3a-4a31-bdea-a019146afd7b,5/19/2012 12:00:00 AM,5/19/2012 12:00:00 AM,25083229210000,25,83,"Continental Resources, Inc",Kane 1-10H,48.0118713,-104.7337928,NAD27,,,,Montana,Richland County,1,False,False,,
66e1d191-0481-4616-bfa4-cb8447b1498c,5/20/2012 12:00:00 AM,5/20/2012 12:00:00 AM,25083229500000,25,83,XTO Energy/ExxonMobil,Hanson 44X-26B,47.720331,-104.100272,NAD83,,,,Montana,Richland,1,False,False,,
b3e89de7-c42d-4c01-8aa4-3076fe2c4c9d,5/22/2012 12:00:00 AM,5/22/2012 12:00:00 AM,25085218330000,25,85,Oasis Petroleum,Lester Federal 12-17H,48.098831,-104.129014,NAD27,,,,Montana,Burke,1,False,False,,
49a45376-442b-4e92-8892-9d361efe57f6,5/25/2012 12:00:00 AM,5/25/2012 12:00:00 AM,25083229260000,25,83,"Continental Resources, Inc",Wagner 1-17H,48.01172,-104.63979,NAD27,,,,Montana,Richland County,1,False,False,,
54b44172-58c5-464e-9904-d6deddf2a583,5/25/2012 12:00:00 AM,5/25/2012 12:00:00 AM,25083229610000,25,83,XTO Energy/ExxonMobil,Headington 43X-25B,47.975019,-104.936586,NAD83,,,,North Dakota,Richland,1,False,False,,
3443be0f-2221-481f-92df-1c5ee3a7c187,5/31/2012 12:00:00 AM,5/31/2012 12:00:00 AM,25085218380000,25,85,Oasis Petroleum,Paul Byron 41-13H,48.085547,-104.77786,NAD27,,,,MT,Roosevelt,1,False,False,,
c28bc22b-e9d7-41ea-ba40-5725d643c164,6/6/2012 12:00:00 AM,6/6/2012 12:00:00 AM,25035221870000,25,35,Rosetta Resources,Tribal Coyote Springs 3406 18-16H,48.6972243219,-112.430324197,WGS84,,,,Montana,Glacier,1,False,False,,
f604258f-4f7c-4d3f-97c0-edeb41fbe2cb,6/8/2012 12:00:00 AM,6/8/2012 12:00:00 AM,25083229020000,25,83,"Slawson Exploration Company, Inc.",Culverin 1-32H,47.52869469,-104.05635946,WGS84,,,,Montana,Richland,1,False,False,,
c2bf2eea-b68d-4802-858c-2a1ba0675355,6/8/2012 12:00:00 AM,6/8/2012 12:00:00 AM,25083229020000,25,83,"Slawson Exploration Company, Inc.",Culverin 1-32H,47.52869469,-104.05635946,WGS84,,,,Montana,Richland,1,False,False,,
6b06824d-793a-4964-a8e0-5b8574a9f6be,6/8/2012 12:00:00 AM,6/8/2012 12:00:00 AM,25083229330000,25,83,Whiting Petroleum,Kittleson 24-8TFH,47.91,-104.22,NAD83,,,,Montana,Richland,1,False,False,,
5b4be9fc-153b-4227-ac4e-01ac803ec34a,6/9/2012 12:00:00 AM,6/9/2012 12:00:00 AM,25085218470000,25,85,"EOG Resources, Inc.",Highline 01-2833H,48.243322,-104.049408,NAD83,,,,Montana,Roosevelt,1,False,False,,
5253b44e-9643-4b44-94fb-5ccc06784be1,6/9/2012 12:00:00 AM,6/9/2012 12:00:00 AM,25085218600000,25,85,Oasis Petroleum,Betsy Federal 24-29H,48.066586,-104.247936,NAD27,,,,Montana,Roosevelt,1,False,False,,
71d2f7d3-188b-48e0-9504-a09d92aebc2f,6/11/2012 12:00:00 AM,6/11/2012 12:00:00 AM,25085218480000,25,85,Whiting Petroleum,Christoffersen 24-20TFH,48.34,-104.47,NAD83,,,,Montana,Roosevelt,1,False,False,,
40a77de9-79f2-417b-960b-0883b9a3ed69,6/12/2012 12:00:00 AM,6/12/2012 12:00:00 AM,25083229440000,25,83,"Slawson Exploration Company, Inc.",Cleaver 1-30H,47.544166191,-104.079652183,WGS84,,,,Montana,Richland,1,False,False,,
3cce7505-74ed-4de0-b29e-b8ecf750f2a6,6/13/2012 12:00:00 AM,6/13/2012 12:00:00 AM,25085218340000,25,85,Oasis Petroleum,Talen 43-7H,48.099967,-104.147711,NAD83,,,,Montana,Roosevelt,1,False,False,,
e6189eaf-2318-44cd-8741-f17e8eeebd2f,6/14/2012 12:00:00 AM,6/14/2012 12:00:00 AM,25035222050000,25,35,Rosetta Resources,Tribal Little Rock Coulee 3507-27-16H,48.75547063,-112.49705809,WGS84,,,,Montana,Glacier,1,False,False,,
d847ca29-ea21-42b6-a582-c79715e8c629,6/14/2012 12:00:00 AM,6/14/2012 12:00:00 AM,25085218350000,25,85,Oasis Petroleum,Tana 43-7H,48.099967,-104.147711,NAD83,,,,Montana,Roosevelt,1,False,False,,
40c49af4-1948-48b0-b112-7217fce40565,6/14/2012 12:00:00 AM,6/14/2012 12:00:00 AM,25085218580000,25,85,Oasis Petroleum,Ring Federal 44-34H,48.131183,-104.204314,NAD27,,,,MT,Roosevelt,1,False,False,,
d1d4227e-6dfb-46af-8fb3-f483679a1f12,6/16/2012 12:00:00 AM,6/16/2012 12:00:00 AM,25083229640000,25,83,"Continental Resources, Inc",ROGNAS 3-27H,47.82721371,-104.6011656,NAD27,,,,Montana,Richland,1,False,False,,
3c185756-10a3-4716-a105-83869d98bb68,6/18/2012 12:00:00 AM,6/18/2012 12:00:00 AM,25083229200000,25,83,Fidelity Exploration & Production,Edam 15-22H,46.67207849,-107.548251249,NAD83,,,,Montana,Richland,1,False,False,,
69185d22-2ec6-46a8-91ad-bb11a761871b,6/20/2012 12:00:00 AM,6/20/2012 12:00:00 AM,25083229680000,25,83,"Continental Resources, Inc",Butterfield 1-26H,47.98097415,-104.8483909,NAD27,,,,Montana,Richland,1,False,False,,
47c6ed37-01bf-4c04-b552-c9decd30f3d1,6/22/2012 12:00:00 AM,6/22/2012 12:00:00 AM,25087217320000,25,87,Fidelity Exploration & Production,Kincheloe 11-23H,46.798389,-107.658919,NAD83,,,,Montana,Rosebud,1,False,False,,
947fb78e-a1ac-4bcb-b1d1-48fcaf8e0722,6/24/2012 12:00:00 AM,6/24/2012 12:00:00 AM,25091219060000,25,91,Marathon Oil,Rodney Sveet 21-28H,48.4192,-104.054389,NAD27,,,,Montana,Sheridan County,1,False,False,,
be0fc4b5-985f-49b8-98af-7cd8aa012b2b,6/25/2012 12:00:00 AM,6/25/2012 12:00:00 AM,25083229570000,25,83,Oasis Petroleum,Loki 2658 12-25H,47.983028,-104.175269,NAD27,,,,MT,Richland,1,False,False,,
c469fdd8-5a1b-44b2-aa00-1ac2b1c41fd1,6/28/2012 12:00:00 AM,6/28/2012 12:00:00 AM,25085217710000,25,85,"EOG Resources, Inc.",Stateline 08-3328H,48.129194,-104.098842,NAD83,,,,Montana,Roosevelt,1,False,False,,
cc7572c0-58da-48c3-abbf-0a16c2cf2a67,7/2/2012 12:00:00 AM,7/2/2012 12:00:00 AM,25083229560000,25,83,Whiting Petroleum,Salsbury 24-35-1H,47.87,-104.32,NAD83,,,,Montana,Richland County,1,False,False,,
43f9907c-31c3-40d7-b789-16e5ab7f6133,7/4/2012 12:00:00 AM,7/4/2012 12:00:00 AM,25085218410000,25,85,Whiting Petroleum,Olson 21-28TFH,48.3046,-104.445694,NAD83,,,,Montana,Roosevelt,1,False,False,,
88905374-a96d-45d8-9920-2520a7d71c23,7/8/2012 12:00:00 AM,7/8/2012 12:00:00 AM,25083229700000,25,83,"Continental Resources, Inc",Helen 3-19H,47.89735,-104.66588,NAD83,,,,Montana,Richland County,1,False,False,,
101cfcb6-1920-4b17-9b90-2e0db1253864,7/11/2012 12:00:00 AM,7/11/2012 12:00:00 AM,25035222040000,25,35,Anschutz Exploration Corporation,Flat Iron 1-8-32-12,48.54393554,-113.18928086,NAD83,,,,Montana,Glacier,1,False,False,,
3822f0b1-add9-4600-8f38-2bd9ad95ecf2,7/12/2012 12:00:00 AM,7/12/2012 12:00:00 AM,25083229040000,25,83,"Slawson Exploration Company, Inc.",Sentinel 1-22H,47.832747,-105.023475,WGS84,,,,Montana,Richland,1,False,False,,
7ac93cc4-ea1e-4ba9-b92c-a234ad1cc2cc,7/13/2012 12:00:00 AM,7/13/2012 12:00:00 AM,25085218610000,25,85,Oasis Petroleum,Jimbo 2759 12-14B,48.098689,-104.049358,NAD27,,,,,,1,False,False,,
4f85dbca-23b7-40f7-b8aa-46d24c53d791,7/14/2012 12:00:00 AM,7/14/2012 12:00:00 AM,25083228960000,25,83,"Continental Resources, Inc",Davies 1-20H,47.984132669,-104.76988107,NAD83,,,,Montana,Richland,1,False,False,,
7804303e-5a2d-442d-be5e-4628a8aef1c9,7/16/2012 12:00:00 AM,7/16/2012 12:00:00 AM,25085218550000,25,85,Whiting Petroleum,Elvsaas 21-4TFH,48.35,-104.3,NAD83,,,,Montana,Roosevelt,1,False,False,,
b260ccf3-104f-47f5-91ea-7ed29e1e5997,7/17/2012 12:00:00 AM,7/17/2012 12:00:00 AM,25085218620000,25,85,"EOG Resources, Inc.",Stateline 12-2932H,48.156514,-104.134036,NAD83,,,,Montana,Roosevelt,1,False,False,,
ba0f0243-a24e-43f0-8683-477bb3aff266,7/18/2012 12:00:00 AM,7/18/2012 12:00:00 AM,25083229930000,25,83,Oasis Petroleum,Tim Federal 2658 21-10H,48.021976,-104.224161,NAD27,10261.0,2668848.0,,Montana,Richland,1,False,False,,
7ccbd89d-1efb-41c8-b696-e6b83ab1a31b,7/22/2012 12:00:00 AM,7/22/2012 12:00:00 AM,25085218500000,25,85,Statoil Oil & Gas LP,Wilde 30-31 #1H,48.1564689,-104.1552217,NAD83,10238.0,3108750.0,,Montana,Roosevelt,1,False,False,,
55e1f95e-9a71-4e3e-999f-d31dcc72fb30,7/22/2012 12:00:00 AM,7/22/2012 12:00:00 AM,25087217340000,25,87,Fidelity Exploration & Production,Coffee 31-2H,46.654947,-107.53425666,NAD83,,,,Montana,Rosebud,1,False,False,,
8cea3426-9c0a-435c-a18c-b0e994217c7b,7/25/2012 12:00:00 AM,7/25/2012 12:00:00 AM,25085218310000,25,85,"G3 Operating, LLC.",Sorensen 1-34-27H,48.0,-104.0,NAD83,,,,North Dakota,Williams,1,False,False,,
907bbd52-cf73-43d4-9ee4-637219e8328a,7/26/2012 12:00:00 AM,7/26/2012 12:00:00 AM,25083229970000,25,83,"Slawson Exploration Company, Inc.",Dragonfly 1-36H,47.716849,-104.725124,NAD83,9985.0,1253028.0,,Montana,Richland,1,False,False,,
5ad3bd80-d49c-4b68-b931-611b58da4de0,8/3/2012 12:00:00 AM,8/3/2012 12:00:00 AM,25083229630000,25,83,Whiting Petroleum,Double Bar M 24-32H,48.042069,-104.386367,NAD83,,,,Montana,Richland County,1,False,False,,
ca382be4-3b80-4353-9d63-64f50e8494b0,8/3/2012 12:00:00 AM,8/3/2012 12:00:00 AM,25085218490000,25,85,Statoil Oil & Gas LP,Willard 19-18 #1H,48.156,-104.155,NAD83,10116.0,3327514.0,,Montana,Roosevelt,1,False,False,,
5c80338d-594c-47cd-8792-8aa5fbd4c1ae,8/5/2012 12:00:00 AM,8/5/2012 12:00:00 AM,25091219040000,25,91,"TAQA North USA, Inc.",Ward 11-5H,48.87,-104.05,WGS84,7825.0,367876.0,,Montana,Sheridan,1,False,False,,
c7071fd1-b00d-47f8-99cf-a934cb7e2b18,8/8/2012 12:00:00 AM,8/8/2012 12:00:00 AM,25091219110000,25,91,"TAQA North USA, Inc.",Hellegaard 9-12H #2,48.8702913,-104.0519017,WGS84,7798.0,440277.0,,Montana,Sheridan,1,False,False,,
b9cc00d5-9b18-4d54-ac74-4e0c9589f841,8/9/2012 12:00:00 AM,8/9/2012 12:00:00 AM,25083229580000,25,83,Whiting Petroleum,Iverson Bros 14-33H,47.95555,-104.241,NAD83,,,,Montana,Richland County,1,False,False,,
4b8d5db0-c069-49e6-af52-df0e2e951a36,8/9/2012 12:00:00 AM,8/9/2012 12:00:00 AM,25083229800000,25,83,Whiting Petroleum,Palmer 24-21-1H,47.984,-104.3664,NAD83,,,,Montana,Richland,1,False,False,,
13e6ca4d-fa38-4e16-a7ec-f5aa2ac91b33,8/11/2012 12:00:00 AM,8/11/2012 12:00:00 AM,25091219100000,25,91,Marathon Oil,Dave Clark 21-13H,48.448167,-104.123436,NAD27,,,,Montana,Sheridan,1,False,False,,
7b943b88-37ab-45eb-baa9-4dd849f0fec4,8/15/2012 12:00:00 AM,8/15/2012 12:00:00 AM,25083218750000,25,83,Abraxas Petroleum Corporation,Bellezza 1-24,47.73844,-104.8684,NAD27,,,,Montana,Richland,1,False,False,,
5a851ca7-4320-4ff4-8fd0-d4d4cdf6586c,8/15/2012 12:00:00 AM,8/15/2012 12:00:00 AM,25083229740000,25,83,Fidelity Exploration & Production,Linda 25-36H,47.645345223468,-104.351843761612,NAD83,,,,Montana,Richland,1,False,False,,
2e07f25e-0ab0-475b-b21c-56077f9fc219,8/20/2012 12:00:00 AM,8/20/2012 12:00:00 AM,25083229420000,25,83,"Slawson Exploration Company, Inc.",Canucks 2-13H,47.570952,-104.100865,NAD83,,,,MT,Richland,1,False,False,,
8bab9b71-1371-44c1-b7ee-bdb149990f08,8/21/2012 12:00:00 AM,8/21/2012 12:00:00 AM,25085218640000,25,85,"VAALCO ENERGY (USA), INC.",EPU 133H,48.199353,-105.115209,WGS84,,,,Montana,Roosevelt,1,False,False,,
656dfe6c-ec45-4b70-bb6b-b614a377471d,8/21/2012 12:00:00 AM,8/21/2012 12:00:00 AM,25091219090000,25,91,Marathon Oil,Orville Hendrickson 24-12H,48.448167,-104.123642,NAD27,,,,Montana,Sheridan County,1,False,False,,
b5c404e0-5d21-44bc-9ddf-9f940e521cae,8/22/2012 12:00:00 AM,8/22/2012 12:00:00 AM,25087217360000,25,87,Fidelity Exploration & Production,Grebe 31-33H Bid,46.6693,-107.576491,NAD83,,,,MT,Rosebud,1,False,False,,
25241657-1050-4aa3-94da-f4e20130ed39,8/23/2012 12:00:00 AM,8/23/2012 12:00:00 AM,25083230120000,25,83,"Slawson Exploration Company, Inc.",Weasel 1-36H,47.717155,-104.867335,NAD83,,,,Montana,Richland,1,False,False,,
af2069a5-3683-416e-a7b0-588864a905c7,8/24/2012 12:00:00 AM,8/24/2012 12:00:00 AM,25091219140000,25,91,Whiting Petroleum,Gronlie Farms 31-25TFH,48.43,-104.56,NAD83,,,,Montana,Sheridan,1,False,False,,
1f7c92f0-33e2-4ec4-b885-8020d1f18b30,8/25/2012 12:00:00 AM,8/25/2012 12:00:00 AM,25083225920000,25,83,"Continental Resources, Inc",Mott 1-16H,47.9987362697,-104.74913289,NAD83,,,,Montana,Richland,1,False,False,,
5f7803dc-a3d1-4dd3-a0b8-058c4abf098d,8/25/2012 12:00:00 AM,8/25/2012 12:00:00 AM,25083228900000,25,83,Whiting Petroleum,Prewitt 26-35-1TFH,47.818061,-104.235006,NAD83,10446.0,54118.0,,North Dakota,Richland County,1,False,False,,
80c593c8-1495-4060-a78f-5e44eb7aff63,8/25/2012 12:00:00 AM,8/25/2012 12:00:00 AM,25083229520000,25,83,"Continental Resources, Inc",Mott 1-16H,47.9987362697,-104.74913289,NAD83,,,,Montana,Richland,1,False,False,,
24960bdc-6c36-49ef-ae5f-493f6702a9e3,8/26/2012 12:00:00 AM,8/26/2012 12:00:00 AM,25083229790000,25,83,"Continental Resources, Inc",Belleeza 1-12H,47.77521027,-104.863005732,NAD83,,,,Montana,Richland,1,False,False,,
8c1eeb87-a33d-4fbf-9310-9b3a22c6fa3a,8/26/2012 12:00:00 AM,8/26/2012 12:00:00 AM,25091219200000,25,91,Southwestern Energy,Bedwell 33-52 1-1H,48.6477195119,-104.8495502521,NAD83,8281.0,803397.0,,Montana,Sheridan County,1,False,False,,
6cd272e4-cdf0-4ac8-b742-42ed5c39bcdb,8/27/2012 12:00:00 AM,8/27/2012 12:00:00 AM,25085218220000,25,85,XTO Energy/ExxonMobil,Smith 13X-2B,48.119681,-104.329981,NAD83,,,,Montana,Roosevelt,1,False,False,,
623e36e7-aa12-43a3-bda8-5433b45ad579,8/29/2012 12:00:00 AM,8/29/2012 12:00:00 AM,25083229910000,25,83,"Continental Resources, Inc",Candee 3-18H,47.8477179,-104.95874604,NAD83,,,,Montana,Richland,1,False,False,,
c656ce79-2305-4235-b342-1ef10a86827e,8/30/2012 12:00:00 AM,8/30/2012 12:00:00 AM,25083228840000,25,83,Whiting Petroleum,Lone Butte Patricia 24-25-1H,47.90961,-104.4204,NAD27,,,,Montana,Richland,1,False,False,,
52a90b24-9df0-4b5d-b482-1cdf5a1182ed,9/2/2012 12:00:00 AM,9/2/2012 12:00:00 AM,25083230080000,25,83,"Continental Resources, Inc",Dorothy Melvin 4 HSU,47.804117,-104.656425,NAD83,,,,Montana,Richland,1,False,False,,
289d4f29-19d5-4e97-929c-030a229dc4bc,9/2/2012 12:00:00 AM,9/2/2012 12:00:00 AM,25085218000000,25,85,Oasis Petroleum,Grindland 31-30H,48.127908,-104.272878,NAD83,,,,MT,Roosevelt,1,False,False,,
b7e18ef8-430a-4e6b-a2db-1b4818fc915e,9/3/2012 12:00:00 AM,9/3/2012 12:00:00 AM,25083230130000,25,83,Whiting Petroleum,Watts 42-21-1HR,47.83,-104.145,NAD83,,,,Montana,Richland,1,False,False,,
a38de827-4796-427b-a81b-07be6726baa2,9/4/2012 12:00:00 AM,9/4/2012 12:00:00 AM,25085218740000,25,85,Oasis Petroleum,Fannie Federal,48.073517,-104.148711,NAD27,10283.0,2893800.0,,Montana,Roosevelt,1,False,False,,
ea450be5-7596-4ab1-b7e5-922c281a0ef9,9/8/2012 12:00:00 AM,9/8/2012 12:00:00 AM,25083229710000,25,83,"Continental Resources, Inc",Cara 1-21H,47.9843687128,-104.62601878358,NAD83,,,,Montana,Richland,1,False,False,,
7fbcae0a-a1a2-4201-8c32-5104e0b454f6,9/10/2012 12:00:00 AM,9/10/2012 12:00:00 AM,25083229620000,25,83,Whiting Petroleum,Mahlen 24-32H,47.9545,-104.3896,NAD83,,,,Montana,Richland,1,False,False,,
9e28dd0e-63f8-45cf-a6a5-7fce93e13cb1,9/12/2012 12:00:00 AM,9/12/2012 12:00:00 AM,25083230060000,25,83,"Slawson Exploration Company, Inc.",Lasso 1-4H,47.702223,-104.533655,NAD83,10853.0,1219656.0,,Montana,Richland,1,False,False,,
c46c4dbc-aa58-4fc1-802c-359e56212082,9/13/2012 12:00:00 AM,9/13/2012 12:00:00 AM,25083229240000,25,83,"Continental Resources, Inc",Sherman 1-1H,48.04135131246,-104.6855645649,NAD83,,,,Montana,Richland,1,False,False,,
6ae3d363-66f8-496d-9fc0-6c71c102ecce,9/13/2012 12:00:00 AM,9/13/2012 12:00:00 AM,25083229340000,25,83,Statoil Oil & Gas LP,Shirley 13-24 #1H,48.0115897,-104.0115897,NAD83,,,,Montana,Roosevelt,1,False,False,,
8bac3c31-31ef-4196-82dd-6725e6a2334c,9/17/2012 12:00:00 AM,9/17/2012 12:00:00 AM,25083229300000,25,83,"Continental Resources, Inc",Mackie 1-19H,48.0711897379959,-104.668382798,NAD83,,,,Montana,Richland,1,False,False,,
d0dfe934-d768-4fd8-b0aa-27a6b546bcef,9/17/2012 12:00:00 AM,9/17/2012 12:00:00 AM,25091219270000,25,91,"VAALCO ENERGY (USA), INC.",Bolke 11-01H,48.982061,-104.290017,NAD83,,,,Montana,Sheridan,1,False,False,,
4aa6c602-a732-45bc-a3d7-f01d24d2746a,9/20/2012 12:00:00 AM,9/20/2012 12:00:00 AM,25085218560000,25,85,"G3 Operating, LLC.",Jacob Farms 1-14-23H 1-14-23H,48.0,-104.0,NAD83,,,,Montana,Roosevelt,1,False,False,,
23f80890-c753-42fe-976d-ce426a4903f2,9/20/2012 12:00:00 AM,9/20/2012 12:00:00 AM,25091219210000,25,91,"TAQA North USA, Inc.",Hellegaard 9-13H #2,48.8702913,-104.0519017,WGS84,7791.0,341209.0,,Montana,Sheridan,1,False,False,,
d30045e8-6762-4aa0-8cec-c8ac1a0b5f34,9/21/2012 12:00:00 AM,9/21/2012 12:00:00 AM,25083229460000,25,83,"Slawson Exploration Company, Inc.",Rapscallion 1-34H,47.791,-105.022675,NAD83,,,,MT,Richland,1,False,False,,
037d11aa-baa2-462f-87b3-8ff975bf3be2,9/21/2012 12:00:00 AM,9/21/2012 12:00:00 AM,25083229670000,25,83,Fidelity Exploration & Production,Klose 8-17H,47.68884720947,-104.4305678579,NAD83,,,,Montana,Richland,1,False,False,,
2f9a9215-95af-418f-99db-56b686c1afbc,9/23/2012 12:00:00 AM,9/23/2012 12:00:00 AM,25083229640000,25,83,"Continental Resources, Inc",Rognas 3-27H,47.8827213708,-104.601165561012,NAD83,,,,Montana,Richland,1,False,False,,
573140c2-c840-42c5-8969-a209cdcfff00,9/24/2012 12:00:00 AM,9/24/2012 12:00:00 AM,25085218560000,25,85,"G3 Operating, LLC.",FT Hought 1-22-15H,48.0,-103.0,NAD83,10172.0,1718152.0,,ND,Williams,1,False,False,,
6fe16a7d-8435-44db-a222-8ea59ba3da4b,9/26/2012 12:00:00 AM,9/26/2012 12:00:00 AM,25083229700000,25,83,"Continental Resources, Inc",Helen 3-19H,47.897520363,-104.66633228,NAD83,,,,Montana,Richland,1,False,False,,
1b457766-400e-4007-8fb0-3554a9865385,9/27/2012 12:00:00 AM,9/27/2012 12:00:00 AM,25091219160000,25,91,Marathon Oil,Raymond Sveet 31-29H,48.417321,-104.073126,NAD83,,,,Montana,Sheridan,1,False,False,,
1eac4dbc-031e-46b5-8884-2eaa7c28ea95,9/29/2012 12:00:00 AM,9/29/2012 12:00:00 AM,25083230230000,25,83,Whiting Petroleum,Kilen 21-15-1H,47.92,-104.35,NAD83,,,,Montana,Richland,1,False,False,,
0491fb60-42a1-47a7-9540-3bce02edd6ba,9/29/2012 12:00:00 AM,9/29/2012 12:00:00 AM,25083230320000,25,83,"Continental Resources, Inc",Klasna 3-19H,47.81979084,-104.833960494,NAD83,,,,Montana,Richland,1,False,False,,
feea5243-84a8-4b49-88b4-88a2ff59dccf,10/1/2012 12:00:00 AM,10/1/2012 12:00:00 AM,25083230010000,25,83,Whiting Petroleum,Norby 21-16-1H,47.92,-104.36,NAD83,,,,Montana,Richland,1,False,False,,
18d7dd3e-5118-465f-9e52-32e84e5da68e,10/1/2012 12:00:00 AM,10/1/2012 12:00:00 AM,25083230020000,25,83,Oasis Petroleum,David Federal 2658 43-9H,48.013136,-104.283248,NAD27,10311.0,2504300.0,,Montana,Richland,1,False,False,,
4e81619e-4a9d-46ed-96d4-74c11b045c17,10/1/2012 12:00:00 AM,10/1/2012 12:00:00 AM,25091219170000,25,91,"TAQA North USA, Inc.",McKinnon 17-8H,48.8702913,-104.0519017,WGS84,7706.0,374653.0,,Montana,Sheridan,1,False,False,,
9327c251-7ad2-4eed-a30b-3b5eaacdc852,10/3/2012 12:00:00 AM,10/3/2012 12:00:00 AM,25087217380000,25,87,Fidelity Exploration & Production,71 Ranch 44-1H,46.642727,-107.379455,NAD83,5115.0,1082654.41679401,,MT,Rosebud,1,False,False,,
393d7b5a-2110-4abc-9229-6fcecd2d975c,10/4/2012 12:00:00 AM,10/4/2012 12:00:00 AM,25091219240000,25,91,"TAQA North USA, Inc.",State 16-12H,48.87,-104.05,WGS84,7862.0,404339.0,,Montana,Sheridan,1,False,False,,
a8678a7a-60d7-4df8-8353-f90afa5988eb,10/7/2012 12:00:00 AM,10/7/2012 12:00:00 AM,25083230030000,25,83,Oasis Petroleum,Sherri 2658 43 9H,48.29042,-104.130693,NAD83,10272.0,2791656.0,,Montana,Richland,1,False,False,,
2fde3a44-92ca-4c90-a214-9c758800f3cd,10/8/2012 12:00:00 AM,10/8/2012 12:00:00 AM,25083230260000,25,83,"Continental Resources, Inc",Lewis 1-13H,48.0118016018024,-104.426479982341,NAD83,10201.0,2379216.0,,Montana,Richland,1,False,False,,
8288a990-bca1-40bd-9d1f-ee54294d5905,10/8/2012 12:00:00 AM,10/9/2012 12:00:00 AM,25083229950000,25,83,Whiting Petroleum,Simmers 4 21-30-1H,47.895642,-104.411803,NAD83,10312.0,1270777.0,,Montana,Richland,2,False,False,,
db4d02e9-505f-4d25-910e-600cafc09e26,10/9/2012 12:00:00 AM,10/9/2012 12:00:00 AM,25091219220000,25,91,"TAQA North USA, Inc.",Hellegaard 8-1H #1,48.87,-104.05,WGS84,7768.0,360015.0,,Montana,Sheridan,1,False,False,,
f3d139ad-49e2-4486-bc27-4eb33672f3c9,10/14/2012 12:00:00 AM,10/14/2012 12:00:00 AM,25091219070000,25,91,Marathon Oil,Sorensen 34-9H,48.448291,-104.0048672,NAD83,,,,Montana,Sheridan,1,False,False,,
fa9881cd-4c3d-4f32-9ab7-56178ef8a607,10/15/2012 12:00:00 AM,10/15/2012 12:00:00 AM,25083229590000,25,83,Oasis Petroleum,Otis 2658 43-23H,47.99,-104.2,WGS84,,,,Montana,Rosevelt,1,False,False,,
9369cdf0-f5c4-4303-b740-dbab07e7c7e8,10/15/2012 12:00:00 AM,10/15/2012 12:00:00 AM,25083229720000,25,83,Oasis Petroleum,Carl Federal 2658 43-23H,47.98,-104.19,WGS84,,,,MT,Richland,1,False,False,,
a1e65f6b-de96-4364-b638-85d0cea3d25c,10/15/2012 12:00:00 AM,10/15/2012 12:00:00 AM,25091219230000,25,91,"TAQA North USA, Inc.",Hellegaard 8-1H #2,48.87,-104.05,WGS84,7772.0,410690.0,,Montana,Sheridan,1,False,False,,
7cf700c2-e852-48c0-ac72-3b0c19dde409,10/18/2012 12:00:00 AM,10/18/2012 12:00:00 AM,25083229780000,25,83,"Slawson Exploration Company, Inc.",Barbarian 1-14H,47.760422,-104.874283,NAD83,9528.0,1093736.7,,MT,Richland,1,False,False,,
4326d3b0-a6c6-47d7-96ff-6c5d6b742f77,10/19/2012 12:00:00 AM,10/19/2012 12:00:00 AM,25083229900000,25,83,"Continental Resources, Inc",Butka 3-5H,47.776197367,-104.818148223,NAD83,9748.0,1948296.0,,Montana,Richland,1,False,False,,
ca735963-a782-404e-84a2-053ce9eaded2,10/24/2012 12:00:00 AM,10/24/2012 12:00:00 AM,25083230430000,25,83,"Continental Resources, Inc",Osborn 1-34H,48.0418552355,-104.473845555144,NAD83,10037.0,2425401.0,,Montana,Richland,1,False,False,,
312f36fe-2231-44cd-9b1a-c9f18c8f4de7,10/24/2012 12:00:00 AM,10/24/2012 12:00:00 AM,25085218570000,25,85,"G3 Operating, LLC.",Wheeler Ranch 1-16-21H,48.0,-104.0,NAD83,9848.0,1451268.0,,Roosevelt,Montana,1,False,False,,
65510bd5-6668-425e-966e-4cb24a22f3bf,10/25/2012 12:00:00 AM,10/25/2012 12:00:00 AM,25083229960000,25,83,Whiting Petroleum,Kittleson Federal 34-23-1H,48.011722,-104.317669,NAD83,10258.0,1231598.0,,Montana,Richland County,1,False,False,,
803319b3-4720-4c67-9326-96e3eeda4fc0,10/26/2012 12:00:00 AM,10/26/2012 12:00:00 AM,25035222040000,25,35,Anschutz Exploration Corporation,Flat Iron 1-8-32-12,48.544041235,-113.18924364,NAD83,7753.0,0.0,,Montana,Glacier,1,False,False,,
d18b9673-e56c-4876-a8b4-c10f0ae5709e,10/27/2012 12:00:00 AM,10/27/2012 12:00:00 AM,25091219120000,25,91,"TAQA North USA, Inc.",Hellegaard 10-9H #1,48.87,-104.05,WGS84,7766.0,416609.0,,Montana,Sheridan,1,False,False,,
8b27af44-09a4-4a4a-9b64-bd3cc4d2686b,10/30/2012 12:00:00 AM,10/30/2012 12:00:00 AM,25019211490000,25,19,Apache Corporation,Lindley 19-9H-B,48.859572,-105.628366,NAD27,7210.0,904175.0,,Montana,Daniels,1,False,False,,
ce4b675f-2fc8-4906-9fe9-4258a2438acb,10/31/2012 12:00:00 AM,10/31/2012 12:00:00 AM,25083229350000,25,83,"Continental Resources, Inc",Egan 1-14H,48.0121944786919,-104.841616573416,NAD83,9412.0,1918687.0,,Montana,Richland,1,False,False,,
06f7bd3f-ed76-4589-80fc-80cd2c7d36db,10/31/2012 12:00:00 AM,10/31/2012 12:00:00 AM,25091219280000,25,91,"TAQA North USA, Inc.",Hellegaard 10-9H #2,48.87,-104.05,WGS84,7763.0,448550.0,,Montana,Sheridan,1,False,False,,
fdc2a743-8817-4791-9f51-4448f0d22100,11/1/2012 12:00:00 AM,11/1/2012 12:00:00 AM,25083229920000,25,83,Statoil Oil & Gas LP,Judith 10-3 1H,47.9247,-104.0802,NAD83,10407.0,3418074.0,,Montana,Richland County,1,False,False,,
b6cb63a2-5c51-42bd-aaa9-466e012bcf15,11/2/2012 12:00:00 AM,11/2/2012 12:00:00 AM,25083218660000,25,83,"Slawson Exploration Company, Inc.",Verschoot 1-9 SWD,47.7379689,-104.846809784,NAD83,5309.0,57648.0,,Montana,Richland,1,False,False,,
db63dc39-1a69-43ec-a9a1-11a7b2b81fde,11/4/2012 12:00:00 AM,11/4/2012 12:00:00 AM,25083229170000,25,83,"Continental Resources, Inc",Gorman 1-11H,47.9843713587335,-104.626010431248,NAD83,9287.0,1912271.08542647,,Montana,Richland,1,False,False,,
a9e22bb7-b2ae-4d4f-bc37-e15684bd99ba,11/4/2012 12:00:00 AM,11/4/2012 12:00:00 AM,25091218900000,25,91,"TAQA North USA, Inc.",Jerde 10-8H,48.87,-104.05,WGS84,7844.0,233731.0,,Montana,Sheridan,1,False,False,,
910db65c-35ed-49d2-80d6-8efd200f6fac,11/6/2012 12:00:00 AM,11/6/2012 12:00:00 AM,25091219300000,25,91,"VAALCO ENERGY (USA), INC.",Bolke 07-01H,48.972886,-104.378086,NAD83,7838.0,610932.0,,Montana,Sheridan,1,False,False,,
fb7db5f5-d2ee-4b18-9ac7-2d04728efc2a,11/12/2012 12:00:00 AM,11/12/2012 12:00:00 AM,25083229850000,25,83,Statoil Oil & Gas LP,Warren 15-22 1H,47.92,-104.08,NAD83,10366.0,3212594.0,,Montana,Richland County,1,False,False,,
164858f5-c96a-43ac-8ac1-2805b164ee2f,11/16/2012 12:00:00 AM,11/16/2012 12:00:00 AM,25083230280000,25,83,Fidelity Exploration & Production,Lisa 22-23H,47.6494235505411,-104.399259494035,NAD83,10379.0,961380.0,,Montana,Richland,1,False,False,,
25ada499-c448-4dcc-a4c3-8ecf2a1b7ac9,11/16/2012 12:00:00 AM,11/16/2012 12:00:00 AM,25083230540000,25,83,Whiting Petroleum,Vitt 31-17-1H,47.92,-104.39,NAD83,10532.0,1310206.0,,MT,Richland,1,False,False,,
5b9330ad-48f8-4a06-a3cf-5fc2bfae4153,11/19/2012 12:00:00 AM,11/23/2012 12:00:00 AM,25083229730000,25,83,XTO Energy/ExxonMobil,Headington 43X-23B,47.990486,-104.958456,NAD83,8669.0,351960.0,,Montana,Richland,2,False,False,,
ad42be1d-1348-4fe5-926f-42dcdebe586d,11/26/2012 12:00:00 AM,11/26/2012 12:00:00 AM,25083230530000,25,83,"Continental Resources, Inc",Lazy D 3X-4H,47.7888354831392,-104.799144666,NAD83,9950.0,1627944.0,,Montana,Richland,1,False,False,,
69dfbd17-5c6d-474e-8c1e-33863df1c57a,11/26/2012 12:00:00 AM,11/26/2012 12:00:00 AM,25085218820000,25,85,"G3 Operating, LLC.",McCabe 1-4-9H,48.0,-104.0,NAD83,9780.0,1755412.0,,Montana,Roosevelt,1,False,False,,
c5baa796-a4e1-429c-98bc-a7cd6d245a4a,11/27/2012 12:00:00 AM,11/27/2012 12:00:00 AM,25083228650000,25,83,"Continental Resources, Inc",Buckley 1-9H,47.9261324611,-104.496949967612,NAD83,10496.0,2445870.0,,Montana,Richland,1,False,False,,
0a4bf582-28f5-4430-ba41-5484aa5e5cd3,11/29/2012 12:00:00 AM,11/29/2012 12:00:00 AM,25085218780000,25,85,Oasis Petroleum,Mercy Federal 2759 44-11T,48.09978,-104.05337,NAD83,10563.0,3106320.0,,Montana,Roosevelt,1,False,False,,
eea1295e-994e-4771-9832-2f10adbc504c,11/27/2012 12:00:00 AM,11/30/2012 12:00:00 AM,25083229690000,25,83,XTO Energy/ExxonMobil,Ruffatto 13X-24B,47.989933,-104.956,NAD83,9097.0,3004008.0,,Montana,Richland,2,False,False,,
991e3ad3-4873-4d39-8c0a-17aea0c98da1,11/30/2012 12:00:00 AM,11/30/2012 12:00:00 AM,25085218780000,25,85,Oasis Petroleum,Justice Federal 2759 44-11T,48.09978,-104.05337,NAD83,10600.0,2841174.0,,Montana,Roosevelt,1,False,False,,
3d12ebd5-3f85-4412-bbc8-e9a1145f570a,12/3/2012 12:00:00 AM,12/3/2012 12:00:00 AM,25083229470000,25,83,"Continental Resources, Inc",Cooper 1-10H,48.0257303131668,-104.863343040644,NAD83,9150.0,2385877.0,,Montana,Richland,1,False,False,,
afe15642-adb5-423d-977a-b8738966b63d,12/3/2012 12:00:00 AM,12/3/2012 12:00:00 AM,25083229490000,25,83,"Slawson Exploration Company, Inc.",Rustler 1-4H,47.789818,-105.044823,NAD83,9188.0,1623758.242,,MT,Richland,1,False,False,,
8e8b8d2d-783c-4372-9f24-148c867e9622,12/6/2012 12:00:00 AM,12/6/2012 12:00:00 AM,25083230240000,25,83,Whiting Petroleum,Kittleson 24-24-1H,47.9907282,-104.3002336,NAD27,10242.0,1371881.0,,Montana,Richland,1,False,False,,
97091fcf-da87-485d-afe0-f6fe9a932025,12/9/2012 12:00:00 AM,12/9/2012 12:00:00 AM,25083230460000,25,83,"Continental Resources, Inc",Twyla 3-30H,47.8185859294817,-104.838818401746,NAD83,9612.0,2009524.0,,Montana,Richland,1,False,False,,
f31be07b-b239-42dc-a8c9-7274d20b58f4,12/11/2012 12:00:00 AM,12/11/2012 12:00:00 AM,25085218730000,25,85,Oasis Petroleum,Disco 2959 13-30H,48.243899,-104.093502,NAD27,10467.0,2706270.0,,Montana,Roosevelt,1,False,False,,
5e32abe7-2cdd-4e68-ac32-bff1d284b283,12/12/2012 12:00:00 AM,12/12/2012 12:00:00 AM,25083230410000,25,83,"Continental Resources, Inc",Shevlin 2-20H,47.7462355949394,-104.698582165999,NAD83,10069.0,1642872.0,,Montana,Richland,1,False,False,,
baac2253-3a8c-466e-9720-b3b43c55478d,12/14/2012 12:00:00 AM,12/14/2012 12:00:00 AM,25083228580000,25,83,Whiting Petroleum,Sorteberg 27-34-1H,47.8895853,-104.3431929,NAD83,10456.0,2069639.0,,MT,Richland,1,False,False,,
c0c8c8a4-9eac-434b-b30c-354da307be9b,12/18/2012 12:00:00 AM,12/18/2012 12:00:00 AM,25085218750000,25,85,Oasis Petroleum,Dave T 2958 13-25H,48.24374,-104.116215,NAD27,10492.0,2977688.0,,Montana,Roosevelt,1,False,False,,
c965b692-cac9-4022-b067-e30da97950dc,12/18/2012 12:00:00 AM,12/18/2012 12:00:00 AM,25085218840000,25,85,Oasis Petroleum,B&RT 13-25H,48.243739,-104.116625,NAD27,10369.0,2960033.0,,Montana,Roosevelt,1,False,False,,
3795d715-18bf-4dff-9f22-93035458ee76,12/21/2012 12:00:00 AM,12/21/2012 12:00:00 AM,25019211510000,25,19,Apache Corporation,Haworth 18-7H-B,48.832301,-105.540776,NAD27,7085.0,376776.0,,Montana,Daniels,1,False,False,,
75f25f25-7454-478c-bcbc-69ad75946d4c,12/27/2012 12:00:00 AM,12/27/2012 12:00:00 AM,25083229290000,25,83,"Continental Resources, Inc",Devin 1-13H,48.0120608437417,-104.820393183494,NAD83,9371.0,2271780.0,,Montana,Richland,1,False,False,,
1f48c444-b8c9-4260-8226-2ebc7ebbcfee,1/3/2013 12:00:00 AM,1/3/2013 12:00:00 AM,25083229760000,25,83,"Slawson Exploration Company, Inc.",Dirk Federal 1-22-21H,47.569656,-104.122261,NAD83,10259.0,1317872.0,0.0,Montana,Richland,2,False,False,,
b011597a-3085-4de6-a2b7-74a0577ae488,1/3/2013 12:00:00 AM,1/3/2013 12:00:00 AM,25091219360000,25,91,Samson,Riva Ridge 0607-2H,48.648924,-104.437431,NAD83,8558.0,1500437.0,,Montana,Sheridan,1,False,False,,
defd8490-fcf8-44d9-870d-08378b81cb2f,1/6/2013 12:00:00 AM,1/6/2013 12:00:00 AM,25085218900000,25,85,Oasis Petroleum,Sage Brush 43-9H,48.100122,-104.234814,NAD27,10224.0,2791489.0,,Montana,Roosevelt,1,False,False,,
dcb99735-6089-42f3-9726-3bc14e621962,1/8/2013 12:00:00 AM,1/8/2013 12:00:00 AM,25083228960000,25,83,"Continental Resources, Inc",Davies 1-20H,47.9841395704669,-104.769889657953,NAD83,9600.0,2244568.0,,Montana,Richland,1,False,False,,
512d3309-0257-4f8b-a236-71906a4b50d4,1/10/2013 12:00:00 AM,1/10/2013 12:00:00 AM,25083230860000,25,83,"Continental Resources, Inc",Charlie 1-5H,47.9422713999124,-104.783392464682,NAD83,9550.0,2486820.0,,Montana,Richland,1,False,False,,
ebbe7a9e-496d-4219-be28-c26f761082f0,1/11/2013 12:00:00 AM,1/11/2013 12:00:00 AM,25085218190000,25,85,XTO Energy/ExxonMobil,Grindland 34X-25C,48.143731,-104.294908,NAD83,10024.0,3174263.0,,Montana,Roosevelt,1,False,False,,
e583cc68-bfda-4f82-a65b-758b333a36ac,1/15/2013 12:00:00 AM,1/15/2013 12:00:00 AM,25083230800000,25,83,"Slawson Exploration Company, Inc.",Curmudgeon 2-20H,47.820004,-105.082306,NAD83,8890.0,1402857.0,,MT,Richland,1,False,False,,
bba927af-460a-4ac3-b7af-fd1f6048756f,1/19/2013 12:00:00 AM,1/19/2013 12:00:00 AM,25083230500000,25,83,"Continental Resources, Inc",Schilling 1-20H,47.746206502002,-104.825533056364,NAD83,9740.0,1183812.0,,Montana,Richland,1,False,False,,
3a53cf4a-2a3d-4074-89a7-a8a108aa82ad,1/19/2013 12:00:00 AM,1/19/2013 12:00:00 AM,25083230560000,25,83,Whiting Petroleum,Christiansen 34-12-1H,47.92,-104.16,NAD83,10292.0,1402154.0,,Montana,Richland,1,False,False,,
05a3176f-5540-4f4e-b061-481a9fb0a09b,1/19/2013 12:00:00 AM,1/19/2013 12:00:00 AM,25083230680000,25,83,"Slawson Exploration Company, Inc.",Curmudgeon 1-20H,47.820011,-105.066513,NAD83,8924.0,1152263.0,,MT,Richland,1,False,False,,
0446f06f-2646-493e-b7aa-6250c2e99419,1/24/2013 12:00:00 AM,1/24/2013 12:00:00 AM,25085218230000,25,85,XTO Energy/ExxonMobil,State 42X-36C,48.136772,-104.290672,NAD83,10010.0,3022110.0,,Montana,Roosevelt,1,False,False,,
abd62359-c3bf-4db4-9985-6c380047c607,1/26/2013 12:00:00 AM,1/26/2013 12:00:00 AM,25091219310000,25,91,Sinclair Oil & Gas Company,Chisholm 1-3H,48.5558148,-104.4213128,NAD83,8856.0,2362962.0,,Montana,Sheridan,1,False,False,,
460803d2-50c8-4103-bdea-d49867533e5a,1/29/2013 12:00:00 AM,1/29/2013 12:00:00 AM,25085218660000,25,85,"EOG Resources, Inc.",Highline 02-0904H,48.274036,-104.048408,NAD83,10571.0,4233306.0,,Montana,Roosevelt,1,False,False,,
56cb9683-f30a-4376-a680-3362f476c4f0,1/29/2013 12:00:00 AM,1/29/2013 12:00:00 AM,25085218920000,25,85,"G3 Operating, LLC.",Sorensen 1-6-7H,48.3017,-104.354,NAD83,10206.0,2670916.0,,Montana,Roosevelt,1,False,False,,
75bba836-128d-4f56-8289-510e12d0ba0e,1/24/2013 12:00:00 AM,1/30/2013 12:00:00 AM,25085218960000,25,85,"Continental Resources, Inc",Langdon 1-19H,48.245113832,-104.2316798176,NAD83,10130.0,2544150.0,0.0,Montana,Roosevelt,2,False,False,,
f96cc60d-0a77-4f08-a7e8-e0a6d47529cf,2/2/2013 12:00:00 AM,2/2/2013 12:00:00 AM,25083230720000,25,83,"Continental Resources, Inc",Reimann 3-23H,47.7458889406129,-104.62511042532,NAD83,10185.0,2476110.0,,Montana,Richland,1,False,False,,
2e7ccd4c-4ef0-49e7-ad31-381872976cc6,1/29/2013 12:00:00 AM,2/3/2013 12:00:00 AM,25091219320000,25,91,Unit Petroleum,Abenroth 1-2H,48.90926,-104.61679,NAD27,7805.0,364308.0,0.0,Montana,Sheridan,2,False,False,,
3a8bb632-c0d4-4674-8502-9aa86151b48f,2/6/2013 12:00:00 AM,2/6/2013 12:00:00 AM,25035221280000,25,35,Anschutz Exploration Corporation,Paisley 1-4-37-13,48.987935018,-113.31579285,NAD83,7697.0,0.0,,Montana,Glacier,1,False,False,,
ec62ffbf-df71-4f0d-9633-2068ca1a5d5f,2/7/2013 12:00:00 AM,2/7/2013 12:00:00 AM,25085218800000,25,85,Statoil Oil & Gas LP,Crusch Ranch 6-7 #1H,48.12595,-104.0901424,NAD83,10661.0,2566364.0,,Montana,Roosevelt,1,False,False,,
a72b8312-3a5d-46af-b637-c8bbbeaf1ab0,2/10/2013 12:00:00 AM,2/10/2013 12:00:00 AM,25083230780000,25,83,"Continental Resources, Inc",Pine 12-1H 1,47.8490319550231,-105.108894852244,NAD83,9000.0,1250600.0,,Montana,Richland,1,False,False,,
c01d4559-5bac-4ee1-b750-8ef4a7cb7b0a,2/11/2013 12:00:00 AM,2/11/2013 12:00:00 AM,25085218860000,25,85,Oasis Petroleum,M&MT 2958 13-26H,48.243883,-104.136969,NAD27,10407.0,2136649.0,,Montana,Roosevelt,1,False,False,,
cbb6bedd-a331-4bd6-ae5e-87468ba06f17,2/13/2013 12:00:00 AM,2/13/2013 12:00:00 AM,25083229540000,25,83,"Continental Resources, Inc",Tower 1-4H,48.0266736,-104.885407,NAD83,8908.0,2436668.0,,Montana,Richland County,1,False,False,,
a83ea421-ff7a-4eaa-b6a8-251043e56cbc,2/14/2013 12:00:00 AM,2/14/2013 12:00:00 AM,25083229430000,25,83,"Slawson Exploration Company, Inc.",Pilum 1-24H,47.571045,-104.100594,NAD83,10277.0,67002.0,,MT,Richland,1,False,False,,
0cfb1960-ac9e-49c4-8bc9-dbcba4f5fa95,2/14/2013 12:00:00 AM,2/14/2013 12:00:00 AM,25083229510000,25,83,"Continental Resources, Inc",Hitchcock 1-9H,48.0266736,-104.8852231,NAD83,8964.0,2374361.0,,Montana,Richland County,1,False,False,,
83571885-1e2c-42e2-be77-9215ba222f3f,2/15/2013 12:00:00 AM,2/15/2013 12:00:00 AM,25085218680000,25,85,"EOG Resources, Inc.",Stateline 14-3427H,48.129275,-104.090547,NAD83,10246.0,4230114.0,,Montana,Roosevelt,1,False,False,,
ef7f27c1-1fdc-44a0-9b4a-ab94baba0a4a,2/16/2013 12:00:00 AM,2/16/2013 12:00:00 AM,25083230550000,25,83,Whiting Petroleum,Christiansen 34-11-1H,47.926275,-104.189575,NAD83,10321.0,1367403.0,,MT,Richland,1,False,False,,
ceb4b81e-38c2-44df-8f7b-cd158342e1fd,2/16/2013 12:00:00 AM,2/16/2013 12:00:00 AM,25085218850000,25,85,Statoil Oil & Gas LP,Christopher 25-36 #1H 342341,48.1498,-104.4287,NAD83,9888.0,3514413.0,,Montana,Roosevelt,1,False,False,,
f72c104d-ea85-4976-a3a5-65d90cc36031,2/18/2013 12:00:00 AM,2/18/2013 12:00:00 AM,25083229810000,25,83,Oasis Petroleum,Stilt Federal 2658 42-22H,47.9830597,-104.21976686,NAD83,10480.0,2595160.0,,Montana,Richland,1,False,False,,
e6f94105-d944-403c-a812-fadf1bd1b8fb,2/18/2013 12:00:00 AM,2/18/2013 12:00:00 AM,25083230450000,25,83,Oasis Petroleum,Dianne Federal 2658 42-22H,47.9830597,-104.21976686,NAD83,10427.0,2597075.0,,Montana,Richland,1,False,False,,
00527237-10fc-4b7f-b1ea-3abe6bbedec5,2/20/2013 12:00:00 AM,2/20/2013 12:00:00 AM,25085218940000,25,85,Oasis Petroleum,Ma 2758 41-11B,48.0,-104.0,NAD83,10205.0,2713284.0,,Montana,Roosevelt,1,False,False,,
f63d0a7c-04a6-4b5e-b690-a37e78ad3fbe,2/26/2013 12:00:00 AM,2/26/2013 12:00:00 AM,25083229530000,25,83,"Continental Resources, Inc",Revere 1-31H,48.04195,-104.92726,NAD83,8721.0,2342593.0,,Montana,Richland County,1,False,False,,
b3c8d326-7298-4d6e-b8cf-cd0e8df9c58d,2/26/2013 12:00:00 AM,2/26/2013 12:00:00 AM,25083230440000,25,83,Statoil Oil & Gas LP,Breaks 17-20 #1H,48.01,-104.39,NAD83,10481.0,3669942.0,,Montana,Richland,1,False,False,,
873d6115-aebb-4058-833e-893c6c4e3959,2/27/2013 12:00:00 AM,2/27/2013 12:00:00 AM,25083229070000,25,83,"Slawson Exploration Company, Inc.",Archer Federal 1-26H,47.818642,-105.017906,NAD83,9331.0,1011123.0,,MT,Richland,1,False,False,,
83131a01-1a80-4173-8391-d3ee48d86b22,3/3/2013 12:00:00 AM,3/3/2013 12:00:00 AM,25083230930000,25,83,Whiting Petroleum,Sundheim Fed 24-35-1H,47.955317,-104.323586,NAD83,10409.0,1381970.0,,MT,Richland,1,False,False,,
f8bd26ef-7d8c-493d-8ea3-7ac5d863432f,3/4/2013 12:00:00 AM,3/4/2013 12:00:00 AM,25083230370000,25,83,"Continental Resources, Inc",Marla Hill 4 HSU,47.8034985,-104.61345,NAD83,10286.0,2534388.0,,Montana,Richland County,1,False,False,,
725936d1-4911-480d-9383-8f286d9a70e0,3/4/2013 12:00:00 AM,3/4/2013 12:00:00 AM,25083230400000,25,83,Statoil Oil & Gas LP,Shannon 2-35 #1H,47.9408623,-104.06255112,NAD83,10337.0,3252866.0,,Montana,Richland,1,False,False,,
3b48d902-61ed-4577-ba2f-2968cf0d4f44,3/6/2013 12:00:00 AM,3/6/2013 12:00:00 AM,25083230710000,25,83,"Continental Resources, Inc",Joseph 1-22H,47.74596,-104.77226,NAD83,9947.0,1131222.0,,Montana,Richland County,1,False,False,,
bf0739d5-1a24-4d8c-8c2c-31f9a8c13794,3/6/2013 12:00:00 AM,3/6/2013 12:00:00 AM,25085218950000,25,85,Oasis Petroleum,Chokecherry 2758 11-10B,48.112569,-104.224514,WGS84,10205.0,2884728.0,,Montana,Roosevelt,1,False,False,,
45e89589-c3d9-4005-a4bb-d1e0586bd8af,3/1/2013 12:00:00 AM,3/8/2013 12:00:00 AM,25083230490000,25,83,"Continental Resources, Inc",Earl 3-25H,47.71826826,-104.6027878,NAD83,10094.0,2513923.0,0.0,Montana,Richland,2,False,False,,
ec0f95fb-9ecd-45aa-8517-66179c0672af,3/9/2013 12:00:00 AM,3/9/2013 12:00:00 AM,25083230730000,25,83,"Continental Resources, Inc",Thomas 3-27H,47.71799,-104.52103,NAD83,10477.0,2486945.0,,Montana,Richland,2,False,False,,
fa21bdca-1552-4ec2-8d50-0bdd0aff3453,3/12/2013 12:00:00 AM,3/12/2013 12:00:00 AM,25085218370000,25,85,Oasis Petroleum,Long Coulee 2958 42-22H,48.245004,-104.163278,NAD83,10345.0,2417772.0,,Montana,Roosevelt,1,False,False,,
81af6a92-e065-4f85-a33f-c5d90b4511a3,3/15/2013 12:00:00 AM,3/15/2013 12:00:00 AM,25083230950000,25,83,"Slawson Exploration Company, Inc.",Hercules 4-2H,47.776482,-104.891327,NAD83,9529.0,1099946.0,,MT,Richland,1,False,False,,
d8016037-4fc3-4b73-bc4e-0e3dc7eef99b,3/10/2013 12:00:00 AM,3/16/2013 12:00:00 AM,25083230750000,25,83,"Continental Resources, Inc",Baird 1-34H,48.05480104,-104.8573521,NAD83,9086.0,2348530.0,0.0,Montana,Richland,2,False,False,,
86e60025-d7b9-4da2-a523-e981bb3cac3e,3/17/2013 12:00:00 AM,3/23/2013 12:00:00 AM,25083230920000,25,83,"Continental Resources, Inc",Audrey Elaine 4HSU,47.80374,-104.57372,NAD83,10411.0,2413530.0,,Montana,Richland,2,False,False,,
08027fbc-48f3-41fa-804a-0d196118d536,3/26/2013 12:00:00 AM,3/26/2013 12:00:00 AM,25083230150000,25,83,"Slawson Exploration Company, Inc.",Boomerang 3-4H,47.527565,-104.079681,NAD83,10385.0,912983.0,,MT,Richland,1,False,False,,
73f22dc3-98bc-40f3-acb4-a611f62c5160,3/26/2013 12:00:00 AM,3/26/2013 12:00:00 AM,25085218990000,25,85,Oasis Petroleum,Stonewall Federal 2959 43-21H,48.244886,-104.051958,WGS84,10471.0,2887752.0,,Montana,Roosevelt,1,False,False,,
e9c7ab14-9b4a-431d-9132-1eff46da03e6,3/28/2013 12:00:00 AM,3/29/2013 12:00:00 AM,25083231010000,25,83,Whiting Petroleum,Sundheim 31-17-1H,47.552937,-104.151844,NAD27,10404.0,1330178.0,,Montana,Richland,2,False,False,,
1b5f54e5-6bb2-4e22-9c4e-62b2466cdf02,3/25/2013 12:00:00 AM,3/29/2013 12:00:00 AM,25083231020000,25,83,"Continental Resources, Inc",Constance Stoney Butte HSU,47.74561,-104.57333,NAD27,10390.0,3051753.0,,Montana,Richland,2,False,False,,
a52c5d28-7f72-4f08-b215-7bb95e735e08,3/21/2013 12:00:00 AM,3/29/2013 12:00:00 AM,25083231030000,25,83,"Continental Resources, Inc",Clayton-Rita HSU,47.74561,-104.57315,NAD27,10341.0,2076888.0,,Montana,Richland,2,False,False,,
06708a3f-83e7-4de3-909a-e16b107b0e3b,3/29/2013 12:00:00 AM,3/30/2013 12:00:00 AM,25083230790000,25,83,Whiting Petroleum,Sundheim 44-8-3H,47.552893,-104.151551,NAD27,10384.0,1278918.0,,Montana,Richland,2,False,False,,
c03d1fbb-6309-4735-a318-5e9518c959e0,4/3/2013 12:00:00 AM,4/3/2013 12:00:00 AM,25083228340000,25,83,XTO Energy/ExxonMobil,Marker 34X-20,47.645747,-104.169136,NAD27,10137.0,1889528.0,,Montana,Richland,1,False,False,,
e36ed7c5-b232-4185-b3da-e983849e9a97,3/30/2013 7:58:00 AM,4/4/2013 8:12:00 AM,25083230960000,25,83,"Continental Resources, Inc",Julie 3-3H,47.77618522,-104.773886,NAD83,9993.0,2477832.0,0.0,Montana,Richland,2,False,False,,
fbf05133-fb73-4ede-bebf-ba63f668db5d,4/8/2013 12:00:00 AM,4/8/2013 12:00:00 AM,25083230290000,25,83,Fidelity Exploration & Production,Klette 24-13H,47.646328,-104.473694,NAD83,10192.0,2532038.0,,MT,Richland,1,False,False,,
82b09eac-ac4d-43ca-948b-50b424dc0fa5,4/5/2013 8:39:00 PM,4/12/2013 5:39:00 AM,25083230890000,25,83,"Continental Resources, Inc",Staci Linnea 4 HSU,47.747365,-104.615993,NAD83,10166.0,2274552.0,0.0,Montana,Richland,2,False,False,,
946e9820-5845-4963-be57-09c6f15cf4a8,4/5/2013 12:00:00 AM,4/13/2013 12:00:00 AM,25083231060000,25,83,"Continental Resources, Inc",Earl Reimann 4 HSU,47.74714,-104.61574,NAD83,10114.0,2296602.0,0.0,Montana,Richland,2,False,False,,
d06bfba9-ac4e-4dce-989a-65eb9e3f802e,4/12/2013 12:00:00 AM,4/17/2013 12:00:00 AM,25083225440000,25,83,"Continental Resources, Inc",Stoney Butte Farms 2-8H,47.7616852,-104.5544114,NAD27,10350.0,1024514.0,,Montana,Richland,2,False,False,,
f0ef5070-6fa4-4f36-b040-c1e705f1aca8,4/17/2013 12:00:00 AM,4/19/2013 12:00:00 AM,25083227710000,25,83,"Continental Resources, Inc",Joann 1-32R H,48.0553653,-104.7809173,NAD27,9271.0,1001909.0,,Montana,Richland,2,False,False,,
3c3ca8fb-dd4d-4fed-90e6-7cc4978a7845,4/19/2013 12:00:00 AM,4/21/2013 12:00:00 AM,25083231050000,25,83,"Continental Resources, Inc",GIDLEY 1-18H,47.912509,-105.057203,NAD83,8607.0,1398600.0,0.0,Montana,Richland,2,False,False,,
e23ceea8-3a2c-43f9-80eb-91f60a191956,4/21/2013 12:00:00 AM,4/21/2013 12:00:00 AM,25083231050000,25,83,"Continental Resources, Inc",GIDLEY #1-18 H,47.912509,-105.057203,WGS84,8607.0,1398600.0,,Montana,Richland,1,False,False,,
faf7025f-48d9-4ffd-a5d2-7f364dfdd508,4/23/2013 12:00:00 AM,4/23/2013 12:00:00 AM,25083230690000,25,83,"Continental Resources, Inc",Levengood 1-5H,47.78893223,-104.9428893,WGS84,9306.0,1341784.0,,Montana,Richland,1,False,False,,
b58dc8ea-6bb5-4ac6-ab58-ac2c6ab98f78,4/23/2013 3:35:00 AM,4/24/2013 5:48:00 AM,25083230690000,25,83,"Continental Resources, Inc",Levengood 1-5H,47.78893223,-104.9428893,NAD83,9306.0,1413909.0,0.0,Montana,Richland,2,False,False,,
4e95a6c8-e436-4549-b9af-3e603e0db36a,4/19/2013 12:00:00 AM,4/26/2013 12:00:00 AM,25085218880000,25,85,"EOG Resources, Inc.",STATELINE 13-3635H,48.133742,-104.046117,NAD83,10442.764,3141642.0,0.0,Montana,Roosevelt,2,False,False,,
80f99c5c-927a-405a-b41a-9751ac9ed692,4/23/2013 12:00:00 AM,4/28/2013 12:00:00 AM,25083231270000,25,83,"Continental Resources, Inc",Goss 3-35H,47.79082,-104.75293,NAD27,10105.0,2397457.0,,Montana,Richland,2,False,False,,
604e234f-d185-42a2-a076-b5761d2b572a,4/29/2013 12:00:00 AM,4/29/2013 12:00:00 AM,25083230330000,25,83,"Slawson Exploration Company, Inc.",Scavenger 1-28H,47.818623,-105.045265,NAD83,8977.0,1337448.0,,MT,Richland,1,False,False,,
1214cd07-be66-4d2a-a313-fa90fd0c6085,4/25/2013 12:00:00 AM,4/29/2013 12:00:00 AM,25083231120000,25,83,XTO Energy/ExxonMobil,Dige 41X-29DXA,47.732006,-104.168047,NAD83,10183.0,3144721.0,,Montana,Richland,2,False,False,,
a3f0d59c-df87-4358-b38b-a909de2b4650,4/27/2013 12:00:00 AM,4/29/2013 12:00:00 AM,25083231310000,25,83,"Continental Resources, Inc",Collins 1-28H,47.73161,-105.05539,NAD27,9225.0,1002417.0,,Montana,Richland,2,False,False,,
52d2762c-96a4-459d-903a-7aefda0abd6a,5/4/2013 12:00:00 AM,5/4/2013 12:00:00 AM,25083231100000,25,83,Whiting Petroleum,Mullin 21-24-1H,47.83,-104.09,NAD83,10997.0,2043179.0,,Montana,Richland,1,False,False,,
cc37f199-2c8e-4917-8b24-081c637f48cd,5/5/2013 12:00:00 AM,5/6/2013 12:00:00 AM,25083231210000,25,83,"Continental Resources, Inc",Clayton-Alice HSU,47.745687,-104.552143,NAD27,10245.0,2263950.0,,Montana,Richland,2,False,False,,
bc7a4dc4-7246-44eb-9322-d7bca2ad6506,5/7/2013 12:00:00 AM,5/8/2013 12:00:00 AM,25083230950000,25,83,"Slawson Exploration Company, Inc.",Hercules 4-2H,47.789249952,-104.87270752,NAD83,9529.0,1296359.0,,Montana,Richland,2,False,False,,
f97a2c03-8c17-408f-baac-9301a34a693d,5/5/2013 12:00:00 AM,5/9/2013 12:00:00 AM,25083231220000,25,83,"Continental Resources, Inc",Stoney Butte-Prevost HSU,47.745687,-104.552326,NAD27,10290.0,2285577.0,,Montana,Richland,2,False,False,,
09b7905a-eafd-44d9-a033-1263cb49f6af,5/12/2013 12:00:00 AM,5/12/2013 12:00:00 AM,25083231110000,25,83,Whiting Petroleum,Weber 24-30-1H,47.80683704,-104.872437845541,NAD83,10254.0,2496106.0,,Montana,Richland,1,False,False,,
3ac7b8a8-66b2-4d80-85bc-3bdbab67ed93,5/13/2013 12:00:00 AM,5/19/2013 12:00:00 AM,25083231190000,25,83,"Continental Resources, Inc",Earl Rita HSU,47.74714,-104.59408,NAD27,10142.0,2434304.0,,Montana,Richland,2,False,False,,
4d8dbf99-947d-4335-8dea-e046bb0e427c,5/14/2013 12:00:00 AM,5/28/2013 12:00:00 AM,25083231180000,25,83,"Continental Resources, Inc",Constance Linnea HSU,47.74714,-104.59426,NAD27,10240.0,2491721.0,,Montana,Richland,2,False,False,,
8b0e63f7-121d-4667-8b1f-43add55b95f0,5/24/2013 12:00:00 AM,5/29/2013 12:00:00 AM,25083231160000,25,83,Whiting Petroleum,SKOV 31-28-1H,47.8960492768155,-104.102900719126,NAD27,10466.0,1782908.0,,Montana,Richland,2,False,False,,
b169e2ce-09bc-4f29-9b07-b49ee948b73c,5/27/2013 12:00:00 AM,6/4/2013 12:00:00 AM,25083229650000,25,83,"Continental Resources, Inc",Katherine 2-15H,47.91173,-104.5932,NAD27,10114.0,2482244.0,,Montana,Richland,2,False,False,,
7c541cbd-f594-4971-8664-f3109ad3a167,6/3/2013 12:00:00 AM,6/7/2013 12:00:00 AM,25083231260000,25,83,"Continental Resources, Inc",Larry 1-28H,47.73144,-104.92163,NAD27,9429.0,1075122.0,,Montana,Richland,2,False,False,,
775c3f6a-8b4f-4a13-af4a-728c73f6a1ab,6/11/2013 12:00:00 AM,6/11/2013 12:00:00 AM,25085219050000,25,85,Oasis Petroleum,Romo Bro Louise,48.100133,-104.101758,WGS84,21000.0,21000.0,,Montana,Roosevelt,2,False,False,,
3fd1e856-fbe8-4bc8-9eb2-6ce2c041f880,6/11/2013 12:00:00 AM,6/11/2013 12:00:00 AM,25085219060000,25,85,Oasis Petroleum,Romo Bro Margaret,48.100133,-104.101556,WGS84,21000.0,21004.0,,Montana,Roosevelt,2,False,False,,
28ba8aa0-af6b-4fed-87b6-6da0c1a4e81a,6/2/2013 12:00:00 AM,6/13/2013 12:00:00 AM,25085218870000,25,85,"EOG Resources, Inc.",HIGHLINE 3-0508H,48.30168,-104.07829,NAD83,10550.273,4396098.0,0.0,Montana,Roosevelt,2,False,False,,
1b6bbbe5-5718-452e-a260-0efd5255c815,6/7/2013 12:00:00 AM,6/14/2013 12:00:00 AM,25083231360000,25,83,"Continental Resources, Inc",Lucille 3-27H,47.7184,-104.64795,NAD27,10138.0,2372686.0,,Montana,Richland,2,False,False,,
336aabd9-cb19-493b-b397-e3f24ebedded,6/17/2013 12:00:00 AM,6/18/2013 12:00:00 AM,25083228560000,25,83,"Slawson Exploration Company, Inc.",Scoundrel 1-8H,47.76191,-104.9378,NAD83,9370.0,1104692.0,,Montana,Richland,2,False,False,,
0e47e0cd-a10f-4b6e-8f03-ee37aa9f04e1,6/11/2013 12:00:00 AM,6/20/2013 12:00:00 AM,25085219070000,25,85,Oasis Petroleum,Romo Bro Ray,48.100131,-104.10135,NAD83,10505.0,2634744.0,,Montana,Roosevelt,2,False,False,,
eaffc7c5-5eb5-4b28-9b9a-55f265d98a0b,6/16/2013 12:00:00 AM,6/22/2013 12:00:00 AM,25085218810000,25,85,Statoil Oil & Gas LP,POWERS RANCH 20-17  #1H,48.156199,-104.140404,NAD27,10232.0,5576433.0,211167.0,Montana,Roosevelt,2,True,False,,
90c4604c-370a-41ac-ad13-436d4ee53f60,6/18/2013 12:00:00 AM,6/23/2013 12:00:00 AM,25083231500000,25,83,"Continental Resources, Inc",Jeannette 3-14H,47.74728,-104.75516,NAD27,9970.0,2386151.0,,Montana,Richland,2,False,False,,
6df27e35-2095-4bc9-9bea-51363b14f8c9,6/20/2013 12:00:00 AM,6/26/2013 12:00:00 AM,25083231420000,25,83,"Continental Resources, Inc",Thomas/Bettye HSU,47.71812,-104.50909,NAD27,10379.0,2233220.0,,Montana,Richland,2,False,False,,
b29dd7c4-3475-4666-95ab-fb7a886d0f13,6/27/2013 12:00:00 AM,6/27/2013 12:00:00 AM,25085219120000,25,85,Oasis Petroleum,Brian M 2958 43-10H,48.274169,-104.157072,WGS84,10487.0,2791489.0,,Montana,Roosevelt,2,False,False,,
c4a2ec3e-1871-467c-9f5d-420fe4094a1e,6/26/2013 12:00:00 AM,6/30/2013 12:00:00 AM,25083231370000,25,83,"Continental Resources, Inc",Fitzsimons 1-26H,47.73137,-104.7554,NAD27,9935.0,1095839.0,0.0,Montana,Richland,2,False,False,,
e9fc5658-5836-4137-af7e-a6039abc3238,6/29/2013 12:00:00 AM,7/2/2013 12:00:00 AM,25083231240000,25,83,"Continental Resources, Inc",Prevost Mondalin HSU,47.74698,-104.52762,NAD27,10320.0,2243103.0,0.0,Montana,Richland,2,False,False,,
4dc6c52d-d2bd-4be4-a98d-df3dcc79e7c0,6/30/2013 12:00:00 AM,7/2/2013 12:00:00 AM,25083231290000,25,83,"Continental Resources, Inc",Alice Thomas HSU,47.74698,-104.52781,NAD27,10290.0,2275926.0,0.0,Montana,Richland,2,False,False,,
1fcee922-c616-4ef8-ac6e-7ddeeecb85e1,7/5/2013 12:00:00 AM,7/5/2013 12:00:00 AM,25083231150000,25,83,Whiting Petroleum,Sundheim 31-2-1H,47.9537733762014,-104.320779783886,NAD83,10261.0,3335794.0,,Montana,Richland,2,False,False,,
3163f102-d4ec-45cc-8c62-63a9c60ed364,7/5/2013 11:51:04 AM,7/10/2013 4:23:35 PM,25083231320000,25,83,Whiting Petroleum,Sundheim 21-3-1H,47.8673222,-104.135817472,NAD27,10491.0,2517079.0,0.0,Montana,Richland,2,False,False,,
4ca38082-065c-4202-84d8-757755f5ed3b,7/5/2013 12:00:00 AM,7/11/2013 12:00:00 AM,25085219130000,25,85,"Continental Resources, Inc",Foxx 1-6H,48.30172,-104.09431,NAD27,10449.0,2430221.0,0.0,Montana,Roosevelt,2,False,False,,
be1ddcd2-2ff5-4c75-883e-468b14b4d687,7/17/2013 12:00:00 AM,7/17/2013 12:00:00 AM,25083231170000,25,83,"Slawson Exploration Company, Inc.",Python 3-4MLH,47.776371,-104.934013,NAD83,9294.0,1226720.0,0.0,Montana,Richland,2,False,False,,
3bb23390-b4c3-460f-82e5-dd32b570f981,7/18/2013 12:00:00 AM,7/18/2013 12:00:00 AM,25083226440000,25,83,Newfield Exploration,Bonnie 2-5H,47.702594,-104.293783,NAD83,10000.0,648060.0,0.0,Montana,Richland,2,False,False,,
a750f069-7090-41f4-9d52-990666a6035c,7/18/2013 12:00:00 AM,7/18/2013 12:00:00 AM,25083226900000,25,83,Newfield Exploration,Gladowski 2-25H,47.804919,-104.603361,NAD83,10000.0,332348.0,0.0,Montana,Richland,2,False,False,,
4f8919ba-53fc-4fea-a208-72b31ac5c9a2,7/19/2013 12:00:00 AM,7/19/2013 12:00:00 AM,25051518350000,25,51,True Oil LLC,Laas #22-14,48.617387,-111.175399,NAD83,3343.0,1276.0,0.0,Montana,Liberty,2,False,False,,
05e4251f-d87a-4b5d-a1bc-497afec98bd6,7/15/2013 12:00:00 AM,7/20/2013 12:00:00 AM,25083231620000,25,83,"Continental Resources, Inc",Audrey Federal HSL,47.77611,-104.59183,NAD27,20279.0,2058867.0,0.0,Montana,Richland,2,False,False,,
26b3988d-612f-4daf-be71-756cfebffc07,7/24/2013 12:00:00 AM,7/27/2013 12:00:00 AM,25083231450000,25,83,"Continental Resources, Inc",Levengood 3-5H,47.78959238,-104.9521039,NAD83,9738.0,1345260.0,0.0,Montana,Richland,2,False,False,,
f36da90c-35fc-419b-bfa1-37729fdbed07,7/24/2013 12:00:00 AM,7/29/2013 12:00:00 AM,25083231440000,25,83,"Continental Resources, Inc",Levengood 2-5H,47.78899,-104.93744,NAD27,9366.0,1407661.0,0.0,Montana,Richland,2,False,False,,
98fdfc06-a17c-4410-bf47-313ccd5c4f77,7/27/2013 12:00:00 AM,7/30/2013 12:00:00 AM,25083231090000,25,83,"Continental Resources, Inc",Lepel 1-34H,47.70424,-104.9065,NAD27,9625.0,1109663.0,0.0,Montana,Richland,2,False,False,,
50874274-e463-4dd5-8c9b-2389c4d20ee8,7/27/2013 12:00:00 AM,7/30/2013 12:00:00 AM,25083231470000,25,83,"Continental Resources, Inc",Levengood 5-5H,47.78959224,-104.9517432,NAD83,9785.0,1396584.0,0.0,Montana,Richland,2,False,False,,
731e1f1c-5273-47e8-8310-cdc62e0e04c8,7/31/2013 12:00:00 AM,7/31/2013 12:00:00 AM,25085218980000,25,85,Oasis Petroleum,Reveille Federal 2759 14-26H,48.069533,-104.053442,WGS84,10723.0,1953714.0,,Montana,Roosevelt,2,True,False,,
437306e0-91b2-487a-9c7b-b0400bedff7f,7/30/2013 12:00:00 AM,8/1/2013 12:00:00 AM,25083231460000,25,83,"Continental Resources, Inc",Levengood 4-5H,47.78959224,-104.95145,NAD83,9288.0,1345260.0,0.0,Montana,Richland,2,False,False,,
b4716d7c-7e8b-4527-a9e1-a624d8cfa8e5,8/5/2013 12:00:00 AM,8/7/2013 12:00:00 AM,25083231410000,25,83,Whiting Petroleum,Sundheim 21-27 1H,47.8958550451128,-104.217276251478,NAD83,10486.0,8181534.0,0.0,Montana,Richland,2,False,False,,
6cc74b74-8b36-4416-9b65-83519057972c,8/18/2013 12:00:00 AM,8/23/2013 12:00:00 AM,25083231380000,25,83,"Continental Resources, Inc",Mabel 1-14H,48.01153,-104.44679,NAD83,10060.0,2321097.0,0.0,Montana,Richland,2,False,False,,
a6b1ac01-bab4-4602-b6b4-f58eeb036cd0,8/24/2013 12:00:00 AM,8/24/2013 12:00:00 AM,25083230330000,25,83,"Slawson Exploration Company, Inc.",Scavenger 1-28H,47.762224096,-104.938345736,NAD83,9101.0,349280.0,0.0,Montana,Richland,2,False,False,,
013ee826-4658-4b4f-8532-fa55bf253fdc,8/24/2013 12:00:00 AM,8/26/2013 12:00:00 AM,25083231390000,25,83,"Continental Resources, Inc",Williamson 1-34H,47.70388,-104.77251,NAD83,9795.0,1050286.0,0.0,Montana,Richland,2,False,False,,
df972e93-fa30-4373-a6d0-9bfafdad994f,8/28/2013 12:00:00 AM,8/28/2013 12:00:00 AM,25083231170000,25,83,"Slawson Exploration Company, Inc.",Python 3-4MLH,47.776371,-104.934013,NAD83,9314.0,1316266.0,0.0,Montana,Richland,2,False,False,,
1014d27d-9712-4bcd-813a-eeb426f3431a,8/30/2013 12:00:00 AM,9/3/2013 12:00:00 AM,25083231510000,25,83,"Continental Resources, Inc",Mifflin 1-30H,47.73142,-104.83584,NAD83,9738.0,1342706.0,0.0,Montana,Richland,2,False,False,,
6f1f42a3-0d28-4b23-adc9-1cd45e5a1334,9/3/2013 12:00:00 AM,9/3/2013 12:00:00 AM,25091216760000,25,91,Southwestern Energy,Loucks 33-27,48.84194,-104.89549,NAD83,9848.0,25665.0,0.0,Montana,Sheridan,2,False,False,,
50a35e02-bf27-41f3-8419-f3bb0f4dc363,9/10/2013 12:00:00 AM,9/11/2013 12:00:00 AM,25083230590000,25,83,Statoil Oil & Gas LP,Sundheim 26-35 2H,47.895294,-104.056394,NAD83,104220.0,674269.0,0.0,Montana,Richland,2,False,False,,
f27667d3-ec82-45f2-8e9a-1fb04371a99f,9/12/2013 12:00:00 AM,9/12/2013 12:00:00 AM,25083221420000,25,83,SM Energy,Coon 2-25H,47.730792,-104.345968,NAD83,10331.0,629257.0,0.0,Montana,Richland,2,False,False,,
6d74e37c-2fea-4276-8a1a-ecf07ee646ee,9/8/2013 12:00:00 AM,9/13/2013 12:00:00 AM,25083231580000,25,83,"Continental Resources, Inc",Mulholland Federal 1-32H,48.04216,-104.5191,NAD27,9917.0,2419255.0,0.0,Montana,Richland,2,False,False,,
7390839e-ddf4-4bfa-a29c-5ecd81765320,9/14/2013 12:00:00 AM,9/17/2013 12:00:00 AM,25083231730000,25,83,Kraken Operating LLC,Clyde & Alma 24 #1H,47.9978901965,-105.0773222916,NAD83,8198.0,1116688.0,0.0,Montana,Richland,2,False,False,,
34b4a90c-3da4-4093-a928-00b2264c527c,9/9/2013 12:00:00 AM,9/18/2013 12:00:00 AM,25083230580000,25,83,Statoil Oil & Gas LP,Sundheim 26-35 1H,47.895294,-104.056395,NAD83,10376.0,4808708.0,0.0,Montana,Richland,2,False,False,,
5070a8dd-2498-4694-b046-31b0b207835b,9/19/2013 12:00:00 AM,9/19/2013 12:00:00 AM,25083222180000,25,83,SM Energy,Franz 2-15H,47.759533,-104.384873,NAD83,10436.0,587328.0,0.0,Montana,Richland,2,False,False,,
a8fd7133-6084-41ec-a931-9ed8fb0576ff,9/26/2013 12:00:00 AM,9/26/2013 12:00:00 AM,25083222570000,25,83,SM Energy,Norgaard 12-6H,47.781113,-104.332766,NAD83,10396.0,364980.0,0.0,Montana,Richland,2,False,False,,
e4640406-cdcf-4494-ac42-e7b6c396d707,9/26/2013 12:00:00 AM,9/28/2013 12:00:00 AM,25083231680000,25,83,"Slawson Exploration Company, Inc.",Cricket 1-30-19H,47.71891,-104.71702,NAD27,9968.0,794472.0,0.0,Montana,Richland,2,False,False,,
18e3855e-bbf4-4e16-9083-de24c97977a5,9/26/2013 12:00:00 AM,9/28/2013 12:00:00 AM,25083231750000,25,83,"Continental Resources, Inc",Blount 1-27H,47.71837,-104.77169,NAD83,11450.0,1146632.0,0.0,Montana,Richland,2,False,False,,
e1a43ec1-4bfc-4a54-b4c7-2dd2afe41288,10/5/2013 12:00:00 AM,10/5/2013 12:00:00 AM,25085219140000,25,85,Oasis Petroleum,Susie 2 2758 42-10B,48.10021,-104.21611,WGS84,10231.0,2610384.0,,Montana,Roosevelt,2,False,False,,
a3055074-fa93-4d88-8490-685b9b3a32de,10/3/2013 12:00:00 AM,10/9/2013 12:00:00 AM,25085219150000,25,85,Oasis Petroleum,Susie 3 2758 42-10B,48.100824,-104.219311,WGS84,10252.0,2428818.0,0.0,Montana,Roosevelt,2,True,False,,
670ccae8-a39a-44b8-9eb4-2422f12152eb,10/3/2013 12:00:00 AM,10/9/2013 12:00:00 AM,25085219160000,25,85,Oasis Petroleum,Susie #4 2758 42-10B,48.1008444,-104.2192611,WGS84,10267.0,2514708.0,0.0,Montana,Roosevelt,2,True,False,,
1b491a3f-b210-4093-b68a-93d1e2629b10,10/3/2013 12:00:00 AM,10/10/2013 12:00:00 AM,25083231250000,25,83,"Continental Resources, Inc",Lucille Reimann HSU,47.74733,-104.63467,NAD83,10035.0,2061147.0,0.0,Montana,Richland,2,False,False,,
45582583-1a06-4545-a8d5-822f32385fad,10/3/2013 12:00:00 AM,10/10/2013 12:00:00 AM,25083231280000,25,83,"Continental Resources, Inc",Ardelle Staci HSU,47.74733,-104.63486,NAD83,10102.0,2215987.0,0.0,Montana,Richland,2,False,False,,
b2dbb5ab-a559-4c94-b660-99b362db6bb0,10/5/2013 12:00:00 AM,10/11/2013 12:00:00 AM,25085219140000,25,85,Oasis Petroleum,Susie #2 2758 42-10B,48.100211,-104.216111,NAD27,10231.0,2610384.0,0.0,Montana,Roosevelt,2,True,False,,
fe33f801-93ae-4ea1-81fa-e0945d68a90a,10/10/2013 12:00:00 AM,10/12/2013 12:00:00 AM,25083231000000,25,83,Kraken Operating LLC,Fischer 20 #1H,47.911014,-105.166244,NAD83,8198.0,1366079.0,0.0,Montana,Richland,2,False,False,,
b8b8a5f9-8972-49bc-8848-615f20f451ac,10/8/2013 12:00:00 AM,10/14/2013 12:00:00 AM,25083231570000,25,83,"Continental Resources, Inc",Parsons Federal 1-6H,48.04028,-104.92678,NAD83,8875.0,2363403.0,0.0,Montana,Richland,2,False,False,,
119ab6f9-fb5f-4fba-b7c2-8968e3eb3c33,10/11/2013 12:00:00 AM,10/15/2013 12:00:00 AM,25083231720000,25,83,"Continental Resources, Inc",Odair 1-24H,47.74579,-104.85755,NAD83,9857.0,1441096.0,0.0,Montana,Richland,2,False,False,,
dbdb6f5c-1184-4008-9e86-8c2e3ac4ed9a,10/11/2013 12:00:00 AM,10/16/2013 12:00:00 AM,25009212970000,25,9,Energy Corporation of America,Foothills #1H,45.30483,-109.57713,NAD27,3463.0,65482.0,0.0,Montana,Carbon,2,False,False,,
e38938e2-262b-4da2-8762-f076c3adb713,10/15/2013 12:00:00 AM,10/18/2013 12:00:00 AM,25083231520000,25,83,"Continental Resources, Inc",McHenry 1-35H,47.80396,-104.80396,NAD83,9200.0,1108687.0,0.0,Montana,Richland,2,False,False,,
5114e4ad-9d46-430f-b2f9-e143a46a27c2,10/15/2013 12:00:00 AM,10/18/2013 12:00:00 AM,25083231530000,25,83,"Continental Resources, Inc",McHenry 2-35H,47.80396,-105.01381,NAD83,0.0,1064716.0,0.0,Montana,Richland,2,False,False,,
dff338bd-7c19-4f9f-91f9-b299d7148bf2,10/16/2013 12:00:00 AM,10/21/2013 12:00:00 AM,25087217390000,25,87,Statoil Oil & Gas LP,Grebe 5-1H,46.641894,-107.589608,NAD83,5160.0,3043301.0,0.0,Montana,Rosebud,2,False,False,,
692d9f8b-1db5-4b77-9779-09ac2f842117,10/16/2013 12:00:00 AM,10/22/2013 12:00:00 AM,25083231590000,25,83,Whiting Petroleum,CHRISTIANSEN 34-11-7H,47.92676,-104.1897,NAD83,10659.0,2151531.0,0.0,Montana,Richland,2,False,False,,
c1fb8249-6453-4f39-9b26-be6d16635a50,10/17/2013 12:00:00 AM,10/22/2013 12:00:00 AM,25083231590000,25,83,Whiting Petroleum,CHRISTIANSEN 34-11-5 H,47.92676,-104.1897,NAD83,11325.0,2434808.0,0.0,Montana,Richland,2,False,False,,
1295d82c-c88f-4bbe-93d7-f3db3bb22aef,10/16/2013 12:00:00 AM,10/22/2013 12:00:00 AM,25083231590000,25,83,Whiting Petroleum,CHRISTIANSEN 34-11-6H,47.92676,-104.1897,NAD83,10902.0,2167290.0,0.0,Montana,Richland,2,False,False,,
a6ba7e6c-7080-485f-a869-43cf055c857c,10/16/2013 12:00:00 AM,10/22/2013 12:00:00 AM,25083231590000,25,83,Whiting Petroleum,CHRISTIANSEN 34-11-7H,47.92676,-104.1897,NAD83,10659.0,2151531.0,0.0,Montana,Richland,2,False,False,,
8ca1395c-6425-4dfe-8e08-dcc92e34913e,10/16/2013 12:00:00 AM,10/22/2013 12:00:00 AM,25083231600000,25,83,Whiting Petroleum,CHRISTIANSEN 34-11-6H,47.5714,-104.1113,NAD83,10902.0,2167290.0,0.0,Montana,Richland,2,False,False,,
c6f22d4f-037a-4ef4-b43d-133a05537d44,10/16/2013 12:00:00 AM,10/22/2013 12:00:00 AM,25083231610000,25,83,Whiting Petroleum,CHRISTIANSEN 34-11-7H,47.5535,-104.1121,NAD83,10659.0,2151531.0,0.0,Montana,Richland,2,False,False,,
863a43c6-937d-40a2-b4ec-c572a42719eb,10/19/2013 12:00:00 AM,10/24/2013 12:00:00 AM,25083231540000,25,83,"Continental Resources, Inc",McHenry 3-35H,47.803889,-105.004722,NAD27,13905.0,1212449.0,0.0,Montana,Richland,2,False,False,,
050a51c5-8a50-4b5b-b574-7978f18af032,10/18/2013 12:00:00 AM,10/24/2013 12:00:00 AM,25085218150000,25,85,Statoil Oil & Gas LP,NELSON 27-22 - # 1 H,48.143838,-104.348526,NAD27,9942.0,9114600.0,112674.0,Montana,Roosevelt,2,False,False,,
a54f2b54-4305-47ba-9e90-8f2dfcaa365d,10/20/2013 12:00:00 AM,10/25/2013 12:00:00 AM,25083231550000,25,83,"Continental Resources, Inc",McHenry 4-35H,47.80401,-105.00406,NAD83,13883.0,882816.0,0.0,Montana,Richland,2,False,False,,
77481a23-22c8-4961-9a0f-c8b824fe3d65,10/22/2013 12:00:00 AM,10/27/2013 12:00:00 AM,25085219110000,25,85,"Continental Resources, Inc",Scottsman 1-30H,48.1564225955,-104.4038585366,NAD83,9968.0,2433117.0,0.0,Montana,Roosevelt,2,False,False,,
d5b6da07-ddda-4a0f-aff0-36e382f28bcf,10/26/2013 12:00:00 AM,10/28/2013 12:00:00 AM,25083231780000,25,83,"Continental Resources, Inc",Cummings 1-24H,47.733112,-104.991446,NAD27,9385.0,980241.6,0.0,Montana,Richland,2,False,False,,
90dfbc9b-0df0-404e-a224-2b7238749514,10/27/2013 12:00:00 AM,10/30/2013 12:00:00 AM,25083231690000,25,83,Whiting Petroleum,Skov 31-27-4H,47.9294,-104.186,NAD83,10771.0,2525892.0,0.0,Montana,Richland,2,False,False,,
1f972ed3-c9a2-493f-984d-7e4998406931,10/27/2013 12:00:00 AM,10/30/2013 12:00:00 AM,25083231740000,25,83,Kraken Operating LLC,Bert 4 #1H,48.040839,-105.014944,NAD83,8044.0,1531472.0,0.0,Montana,Richland,2,False,False,,
87b59aa7-065d-42c0-b078-3db196fb2418,10/31/2013 12:00:00 AM,11/2/2013 12:00:00 AM,25083231790000,25,83,Whiting Petroleum,Berry 24-32-1H,47.9294,-104.1861,NAD83,10744.0,2574846.0,0.0,Montana,Richland,2,False,False,,
6f2b2787-c6b4-4ae1-a778-4df5323ac141,11/3/2013 12:00:00 AM,11/6/2013 12:00:00 AM,25083230980000,25,83,Oasis Petroleum,Bouvardia Federal 2658 12-12H,48.02521,-104.17331,NAD27,10221.0,2642976.0,0.0,Montana,Richland,2,True,False,,
6f786c59-b6cb-4620-bd46-9a7f6a8e20e0,11/8/2013 12:00:00 AM,11/8/2013 12:00:00 AM,25101242100000,25,101,Bill Barrett Corp,Simmes Ranch 41-2-36-3W-H,48.546,-111.57,NAD83,3160.0,265987.0,,Montana,Toole County,1,False,False,,
538d378c-2b7c-4334-8c03-147fb79219df,11/4/2013 12:00:00 AM,11/9/2013 12:00:00 AM,25083230740000,25,83,"Continental Resources, Inc",English Federal 1-5H,48.027778,-104.899167,NAD27,8938.0,2268559.0,0.0,Montana,Richland,2,False,False,,
9420aadb-906c-4cf6-906e-26d35d404bf4,11/11/2013 12:00:00 AM,11/11/2013 12:00:00 AM,25075213030000,25,75,"Denbury Onshore, LLC",BCU 57-11,45.067463643839,-105.153461138575,NAD27,0.0,10066.0,0.0,Montana,Powder River,2,False,False,,
4159e884-3715-40a1-818e-5268a2bdce3e,11/10/2013 12:00:00 AM,11/15/2013 12:00:00 AM,25083230900000,25,83,"Continental Resources, Inc",Fisher Federal 1-29H,48.056365879,-104.89927984,NAD27,8696.0,2351066.0,0.0,Montana,Richland,2,False,False,,
5eed220b-f982-4980-bb1b-bc546fd7a8cd,10/1/2013 12:00:00 AM,11/21/2013 12:00:00 AM,25065218900000,25,65,Statoil Oil & Gas LP,Hougen 32-1H,46.682317,-107.984881,NAD27,4553.0,2980550.0,0.0,Montana,Musselshell,2,False,False,,
02d51cf2-1704-4983-b70c-42b73bd3ade5,11/22/2013 8:00:00 AM,11/23/2013 10:30:00 PM,25083225510000,25,83,XTO Energy/ExxonMobil,Fisher 14X-28,47.9707801112624,-105.020842672882,NAD27,8689.0,685020.0,0.0,Montana,Richland,2,False,False,,
fbe7c090-ea9b-4a42-9bc6-6c46017bf025,11/22/2013 12:00:00 AM,11/25/2013 12:00:00 AM,25083230970000,25,83,Oasis Petroleum,Freesia Federal 2658 13-11H,48.0132874,-104.112099,NAD83,10313.0,2650262.0,,Montana,Richland,2,False,False,,
c4d41910-45ec-4280-8f9c-dafae35b1cfc,11/19/2013 12:00:00 AM,11/25/2013 12:00:00 AM,25083231640000,25,83,"Continental Resources, Inc",Toni HSL,47.8475234,-104.83037,NAD27,9710.0,2274151.0,0.0,Montana,Richland,2,False,False,,
32116b06-3ee3-4766-8b80-42afba92baeb,11/26/2013 12:00:00 PM,11/26/2013 5:15:00 PM,25083219860000,25,83,XTO Energy/ExxonMobil,Carda 31X-35,47.8809468895933,-104.834834887492,NAD27,9509.0,432894.0,0.0,Montana,Richland,2,False,False,,
22810dfa-3124-4cd4-838e-91a6a6fec972,11/20/2013 12:00:00 AM,11/27/2013 12:00:00 AM,25085219100000,25,85,"Continental Resources, Inc",Jar 1-28H,48.1498,-104.364,NAD27,10030.0,3708492.0,0.0,Montana,Roosevelt,2,False,False,,
58c85c84-b142-4a44-94c5-89da01a1c21d,11/27/2013 12:00:00 AM,11/30/2013 12:00:00 AM,25083231760000,25,83,"Continental Resources, Inc",Sterling 1-3H,47.867168,-105.03002,NAD27,8945.0,1207524.0,0.0,Montana,Richland,2,False,False,,
0bb1db43-238b-4cb0-ac7b-91294f507384,12/1/2013 12:00:00 AM,12/6/2013 12:00:00 AM,25083231800000,25,83,Oasis Petroleum,Matador Federal 2658 43-7H,48.0135306,-104.2761408,WGS84,10167.0,2562588.0,0.0,Montana,Richland,2,True,False,,
732a8a04-cf86-4950-b8c6-9b6fd1fc5278,12/5/2013 12:00:00 AM,12/17/2013 12:00:00 AM,25083231130000,25,83,True Oil LLC,Anvick 21-3-3-10H,47.953867,-104.215172,NAD83,10295.0,3117035.0,140545.0,Montana,Richland,2,False,False,,
b3848699-c6fe-45fe-9e28-e99c3c772dcd,12/4/2013 12:00:00 AM,12/18/2013 12:00:00 AM,25083231710000,25,83,"Continental Resources, Inc",Ardelle HSL,47.774911747,-104.658832244,NAD27,10091.0,3142465.0,0.0,Montana,Richland,2,False,False,,
3bcfd085-b68b-41d3-8bbe-c23c34bffdf2,12/14/2013 12:00:00 AM,12/18/2013 12:00:00 AM,25085219240000,25,85,Oasis Petroleum,Crocket 2958 42-21  #1H,48.2449528,-104.1849806,WGS84,10490.0,2132676.0,0.0,Montana,Roosevelt,2,False,False,,
a213b9c1-cd7c-401f-a186-75361cb00413,12/20/2013 12:00:00 AM,12/20/2013 12:00:00 AM,25083230570000,25,83,"Continental Resources, Inc",Toni 3-20H,47.8197931378719,-104.81924304171,NAD83,9705.0,1941324.0,,Montana,Richland,1,False,False,,
1faa2b34-ba32-48d1-8651-5a1cb8b1b44e,12/18/2013 12:00:00 AM,12/20/2013 12:00:00 AM,25085219230000,25,85,Oasis Petroleum,Bowie 2958 42-21 #1H,48.24495,-104.184775,WGS84,10420.0,1203.0,0.0,Montana,Roosevelt,2,False,False,,
c9451e54-c44b-4c94-8781-7a6eb303efcb,12/16/2013 1:13:52 PM,12/21/2013 2:35:31 PM,25083231400000,25,83,Whiting Petroleum,Iverson Brothers 31-1-1H,47.9536173,-104.2979574,NAD83,10395.0,2817031.0,0.0,Montana,Richland,2,False,False,,
ee11aed0-8d39-4046-babe-0596300e0391,1/11/2014 12:00:00 AM,1/11/2014 12:00:00 AM,25075215670000,25,75,"Denbury Onshore, LLC",BCU 57-15,45.0641644470745,-105.14813034207,NAD27,0.0,9991.0,0.0,Montana,Powder River,2,False,False,,
df41438a-0bd4-48da-8f31-efa9f729d15f,1/9/2014 12:00:00 AM,1/11/2014 12:00:00 AM,25083231330000,25,83,"Continental Resources, Inc",Snow 1-13H,47.73357,-104.72895,NAD27,10027.0,2608410.0,0.0,Montana,Richland,2,False,False,,
cd8f84eb-d4fb-4998-aaa4-9ffdf0e65fbe,1/9/2014 12:00:00 AM,1/12/2014 12:00:00 AM,25083231650000,25,83,XTO Energy/ExxonMobil,Headington Federal 43X-23A,47.990406,-104.985456,NAD83,8709.0,3064273.0,0.0,Montana,Richland,2,True,False,,
2256ac60-2a8e-46e6-a3f3-98aab8aee079,1/10/2014 12:00:00 AM,1/12/2014 12:00:00 AM,25083231760000,25,83,"Continental Resources, Inc",Sterling 1-3H,47.84879,-105.02977,NAD27,8920.0,397585.0,0.0,Montana,Richland,2,False,False,,
95a61f53-0222-4c40-8310-d87ba70a07f2,1/16/2014 12:00:00 AM,1/16/2014 12:00:00 AM,25109211960000,25,109,Interstate Explorations LLC,Morgan 5-1,46.94085,-104.1528,NAD27,11810.0,0.0,0.0,Montana,Wibaux,2,False,False,,
9393ccb4-bce6-40b0-97d9-043eaf9aa5b8,1/13/2014 12:00:00 AM,1/18/2014 12:00:00 AM,25083231630000,25,83,"Continental Resources, Inc",Joyce HSL,47.86686,-104.83062,NAD27,10013.0,1676934.0,0.0,Montana,Richland,2,False,False,,
5e2e5a37-7e33-4b21-b4e5-05c021e34a8d,1/19/2014 12:00:00 AM,1/22/2014 12:00:00 AM,25083231930000,25,83,"Continental Resources, Inc",Gilman 1-28H,47.70446,-104.7994,NAD27,10257.0,1112454.0,0.0,Montana,Richland,2,False,False,,
b1e30f3e-682d-4973-82ea-0ad17ae8cbd0,1/14/2014 12:00:00 AM,1/22/2014 12:00:00 AM,25085219380000,25,85,Oasis Petroleum,Miller Girls Federal 2758 42-7H,48.100175,-104.2806528,WGS84,10277.0,2698896.0,,Montana,Roosevelt,2,True,False,,
05d45fbe-afba-4f80-8fa5-e3ace32490a4,1/22/2014 2:51:02 AM,1/22/2014 11:32:20 AM,25083231830000,25,83,Whiting Petroleum,Mullin 21-24-2H,47.8263,-104.0901,NAD83,10434.0,3007640.0,0.0,Montana,Richland,2,False,False,,
c8525dbc-1259-405b-a8e4-15cb6a3ce189,1/18/2014 12:00:00 AM,1/23/2014 12:00:00 AM,25083231850000,25,83,Whiting Petroleum,Mullin 21-24-4H,47.82643699,-104.0930827,NAD83,10463.0,3037955.0,0.0,Montana,Richland,2,False,False,,
db43a20b-b308-4367-ab06-6520a2120b54,1/18/2014 12:00:00 AM,1/24/2014 12:00:00 AM,25083231840000,25,83,Whiting Petroleum,Mullin 21-24-3H,47.8325177,-104.09308,NAD83,10435.0,2699974.0,0.0,Montana,Richland,2,False,False,,
4791a149-2db6-488a-95b8-3c2ab89ceb7c,1/27/2014 12:00:00 AM,1/27/2014 12:00:00 AM,25109211960000,25,109,Interstate Explorations LLC,Morgan 5-1,46.940848,-104.152804,NAD27,11810.0,0.0,0.0,Montana,Wibaux,2,False,False,,
c125d8e5-9761-4dc1-8c32-ee0914ed6ce9,1/22/2014 12:00:00 AM,1/28/2014 12:00:00 AM,25083231960000,25,83,XTO Energy/ExxonMobil,P Q Farms 21X-28BXC,47.731822,-104.153353,NAD27,10168.0,3302418.0,0.0,Montana,Richland,2,False,False,,
96c5d6f4-9627-4352-90d6-5fcf946cf434,1/24/2014 12:00:00 AM,1/29/2014 12:00:00 AM,25085219390000,25,85,Oasis Petroleum,Coyote Federal 2758-43-8H,48.1012278,-104.2535861,WGS84,10247.0,2824198.0,,Montana,Roosevelt,2,True,False,,
73b511e4-7a5b-407e-8c54-5511715f0e1a,1/28/2014 12:00:00 AM,2/2/2014 12:00:00 AM,25083231950000,25,83,XTO Energy/ExxonMobil,P Q Farms 21X-28D,47.731826,-104.153108,NAD27,10176.0,3455004.0,0.0,Montana,Richland,2,False,False,,
3e0b1c7c-dbb6-484b-a123-d2c1e7f88826,1/24/2014 12:00:00 AM,2/2/2014 12:00:00 AM,25085219170000,25,85,"Continental Resources, Inc",Williams 1-12H,48.10558,-104.32915,NAD27,10156.0,3761352.0,0.0,Montana,Roosevelt,2,False,False,,
fae9f46a-d5f7-47ff-8c3e-8f2a32983ac5,2/4/2014 12:00:00 AM,2/4/2014 12:00:00 AM,25109211960000,25,109,Interstate Explorations LLC,Morgan 5-1,46.940848,-104.152804,NAD27,11810.0,0.0,0.0,Montana,Wibaux,2,False,False,,
a4eefb8b-55fc-4a04-ab7a-b110fa888856,2/15/2014 12:00:00 AM,2/15/2014 12:00:00 AM,25109211970000,25,109,Interstate Explorations LLC,Nelson 16-1,46.93481,-104.13823,NAD27,11765.0,0.0,0.0,Montana,Wibaux,2,False,False,,
67cf2742-d22b-4f04-b228-bf2b6b7b3723,2/16/2014 12:00:00 AM,2/21/2014 12:00:00 AM,25083231940000,25,83,"Continental Resources, Inc",Harris 1-20H,47.9883,-104.86939,NAD27,9191.0,1761606.0,0.0,Montana,Richland,2,False,False,,
b94d61d1-56ba-475e-b77b-4d5daa1d10c0,2/16/2014 12:00:00 AM,2/21/2014 12:00:00 AM,25083231940000,25,83,"Continental Resources, Inc",Harris 1-20H,47.9883,-104.86939,NAD27,9191.0,1761606.0,0.0,Montana,Richland,2,False,False,,
1f51c6bc-a8e3-4fd7-ac8d-4e228d8ccec4,2/25/2014 12:00:00 AM,2/25/2014 12:00:00 AM,25021211950000,25,21,Interstate Explorations LLC,MBA Consultants # 1-1,47.36613,-104.55836,NAD27,12000.0,54687.0,0.0,Montana,Dawson,2,False,False,,
4cabb857-e3e3-4aef-b2ec-9ac7e9ced69f,2/3/2014 12:00:00 AM,2/25/2014 12:00:00 AM,25083231430000,25,83,"Continental Resources, Inc",Edgar 2-27H,47.95583,-104.99049,NAD27,8851.0,2510172.0,0.0,Montana,Richland,2,False,False,,
e498b275-7450-48fb-8298-328712dfcf20,2/25/2014 12:00:00 AM,3/9/2014 12:00:00 AM,25083231230000,25,83,"Continental Resources, Inc",Rognas-Barbara HSU,47.91109,-104.6126,NAD27,10031.0,2312646.0,0.0,Montana,Richland,2,False,False,,
0317975f-8e92-4ef8-8112-a9b2d388c257,3/17/2014 12:00:00 AM,3/17/2014 12:00:00 AM,25109211970000,25,109,Interstate Explorations LLC,Nelson 16-1,46.93481,-104.13823,NAD27,11765.0,0.0,0.0,Montana,Wibaux,2,False,False,,
5362284b-4f17-4304-acbb-883cb79c3f43,3/11/2014 12:00:00 AM,3/18/2014 12:00:00 AM,25083231560000,25,83,"Continental Resources, Inc",Charlotte Federal 3-11H,47.9131,-104.96528,NAD27,9113.0,2311764.0,0.0,Montana,Richland,2,False,False,,
adf6dea7-e4fb-4e1e-88c4-1de585bc6968,3/13/2014 12:00:00 AM,3/18/2014 12:00:00 AM,25085219180000,25,85,"Continental Resources, Inc",Gehringer 1-13H,48.18577,-104.17276,NAD27,10310.0,2182215.0,0.0,Montana,Roosevelt,2,False,False,,
ab9644de-4c9a-4010-aa72-d779591d2e96,3/15/2014 12:00:00 AM,3/19/2014 12:00:00 AM,25083232000000,25,83,Whiting Petroleum,Skov 31-28-3H,47.534492,-104.060904,NAD83,10472.0,2697535.0,0.0,Montana,Richland,2,False,False,,
db1c7425-87b5-45c5-81da-cf151d7abe02,3/19/2014 12:00:00 AM,3/23/2014 12:00:00 AM,25083231980000,25,83,"Continental Resources, Inc",Whiteman 1-14H,47.84814,-105.0137,NAD27,8974.0,1101618.0,0.0,Montana,Richland,2,False,False,,
41687ef2-159d-4f5d-9c93-35fd5deb07e4,3/20/2014 12:00:00 AM,3/25/2014 12:00:00 AM,25083231300000,25,83,"Continental Resources, Inc",Mona 1-29H,47.97464,-104.763628,NAD27,9388.0,2369518.0,0.0,Montana,Richland,2,False,False,,
708d2839-342a-4dfa-9433-c021bfa9f968,3/25/2014 12:00:00 AM,3/30/2014 12:00:00 AM,25083232070000,25,83,"Continental Resources, Inc",Marla AHSL,47.77536,-104.63686,NAD27,10326.0,2472036.0,0.0,Montana,Richland,2,False,False,,
e7e93b8d-2ad5-4c93-84b1-fdfe026d8fd9,3/31/2014 9:39:11 AM,3/31/2014 9:55:37 AM,25083231990000,25,83,Whiting Petroleum,Skov 31-28-2H,47.896111,-104.10306,NAD83,0.0,2642206.0,0.0,Montana,Richland,2,False,False,,
36e33210-1936-4be9-8ca2-83d7557136a3,3/13/2014 12:00:00 AM,3/31/2014 11:00:00 AM,25083232010000,25,83,Whiting Petroleum,Skov 31-28-4H,47.896113,-104.103057,NAD83,10432.0,2776358.0,0.0,Montana,Richland,2,False,False,,
c8b6cf49-40cc-42f1-bac3-53635fdfac08,4/6/2014 12:00:00 AM,4/6/2014 12:00:00 AM,25109211970000,25,109,Interstate Explorations LLC,Nelson 16-1,46.93481,-104.13823,NAD27,11765.0,0.0,0.0,Montana,Wibaux,2,False,False,,
95bb0547-1b35-4e1b-8c8e-6c21c006049f,4/9/2014 12:00:00 AM,4/9/2014 12:00:00 AM,25083226590000,25,83,SM Energy,Johnson 14-31H,47.791962,-104.328116,NAD83,10400.0,704327.0,0.0,Montana,Richland,2,False,False,,
55901263-e05f-4312-9935-0859a3614917,4/2/2014 12:00:00 AM,4/9/2014 12:00:00 AM,25083231820000,25,83,"Continental Resources, Inc",Melvin 4-3H,47.80483,-104.64391,NAD27,10208.0,3433962.0,0.0,Montana,Richland,2,False,False,,
207e7ba1-3531-4fe5-89dd-67c03c16d6a4,4/7/2014 12:00:00 AM,4/9/2014 12:00:00 AM,25085219400000,25,85,Oasis Petroleum,Daisy May 2758 31-28H,48.0627,-104.2463,NAD27,10194.0,2797383.0,0.0,Montana,Roosevelt,2,False,False,,
bc90e842-61f4-4639-b4c5-8965bc5768b7,4/10/2014 12:00:00 AM,4/10/2014 12:00:00 AM,25083221900000,25,83,SM Energy,Larson 14-26H,47.718965,-104.369053,NAD83,10500.0,596148.0,0.0,Montana,Richland,2,False,False,,
48bc4f29-6607-4a87-9d37-81e21e151868,4/11/2014 12:00:00 AM,4/11/2014 12:00:00 AM,25083221680000,25,83,SM Energy,Nevins 15-19H,47.733903,-104.452749,NAD83,10580.0,764308.0,0.0,Montana,Richland,2,False,False,,
c2dc7850-a95e-4f55-8d02-818a16c8d18d,4/11/2014 12:00:00 AM,4/11/2014 12:00:00 AM,25083232340000,25,83,Kraken Operating LLC,George 29 #1H,47.968783,-105.171111,NAD27,8141.0,1550946.0,26871.0,Montana,Richland,2,False,False,,
850bddcf-e56c-4755-b1c6-06f5b21382de,4/19/2014 12:00:00 AM,4/20/2014 12:00:00 AM,25085219280000,25,85,Oasis Petroleum,Faye Federal 2759 43-19H,48.071928,-104.145575,NAD83,10360.0,2753641.0,,Montana,Roosevelt,2,False,False,,
382abf89-a01f-482e-af76-74df82e997c4,4/15/2014 12:00:00 AM,4/21/2014 12:00:00 AM,25083232020000,25,83,"Continental Resources, Inc",Stoney Butte 4-17H,47.74758,-104.56267,NAD27,10377.0,2510747.0,0.0,Montana,Richland,2,False,False,,
0e1303c7-00a2-4b55-8ccf-334ea444d804,4/24/2014 12:00:00 AM,4/24/2014 12:00:00 AM,25083223960000,25,83,SM Energy,Simard Farms 2-22H,47.6576457928,-104.2582444834,NAD83,10780.0,508127.0,0.0,Montana,Richland,2,False,False,,
96d9a1ac-43c8-49e2-ab92-17d7363164e3,4/24/2014 12:00:00 AM,5/5/2014 12:00:00 AM,25083231910000,25,83,"Continental Resources, Inc",Barbara 3-28H,47.91176,-104.61909,NAD27,9906.0,2631636.0,0.0,Montana,Richland,2,False,False,,
5a05adaa-ef7e-4b51-8a34-57c9107d1d28,4/24/2014 12:00:00 AM,5/5/2014 12:00:00 AM,25083231910000,25,83,"Continental Resources, Inc",Barbara 3-28H,47.91176,-104.61909,NAD27,9906.0,2631636.0,0.0,Montana,Richland,2,False,False,,
20243979-e932-447f-98d2-edfbad523ec9,5/4/2014 12:00:00 AM,5/5/2014 12:00:00 AM,25085219300000,25,85,Oasis Petroleum,Sage Brush 2758 41-9 2B,48.100158,-104.242903,WGS84,10233.0,2632056.0,,Montana,Roosevelt,2,False,False,,
4a50dcdc-9986-4830-a13f-ea24f51c45d8,5/2/2014 12:00:00 AM,5/6/2014 12:00:00 AM,25083232170000,25,83,"Continental Resources, Inc",Hazel 2-18H,47.7538,-104.8383,NAD27,9680.0,1550792.0,0.0,Montana,Richland,2,False,False,,
49e5b738-1007-4471-afbd-787b164f9e45,5/6/2014 12:00:00 PM,5/6/2014 12:00:00 PM,25027212620000,25,27,WPX Energy,BUNKER HILL 15-17-21-1,47.0471407,-109.5777105,NAD27,2617.0,32826.0,0.0,Montana,Fergus,2,False,False,,
457f652a-ce55-43cc-82e8-ff85241c4529,5/6/2014 12:00:00 AM,5/7/2014 12:00:00 AM,25085219320000,25,85,Oasis Petroleum,Sage Brush 2758 41-9 4B,48.100158,-104.2424944,WGS84,10264.0,2559421.0,,Montana,Roosevelt,2,False,False,,
d5fd14a4-1fe2-41dd-88d4-694e66ffeed6,5/8/2014 12:00:00 AM,5/11/2014 12:00:00 AM,25085219310000,25,85,Oasis Petroleum,Sage Brush 2758 41-9 3T,48.100158,-104.2427,NAD83,10271.0,2686794.0,,Montana,Roosevelt,2,False,False,,
1592c802-c30a-4617-bf28-d8ef5f858244,5/6/2014 12:00:00 AM,5/13/2014 12:00:00 AM,25083231920000,25,83,"Continental Resources, Inc",Barbara 4-28H,47.90936,-104.62466,NAD27,9909.0,2200632.0,0.0,Montana,Richland,2,False,False,,
4705af10-b3b0-4032-b212-18ce7073e38c,5/7/2014 12:00:00 AM,5/13/2014 12:00:00 AM,25083232260000,25,83,"Continental Resources, Inc",Boles 2-33H,47.8453,-104.6228,NAD27,9900.0,2577965.0,0.0,Montana,Richland,2,False,False,,
67ea6e85-1c88-42c7-9aa4-d698ccf1c163,5/7/2014 12:00:00 AM,5/13/2014 12:00:00 AM,25083232270000,25,83,"Continental Resources, Inc",Boles 3-33H,47.88135,-104.61608,NAD27,9900.0,2576426.0,0.0,Montana,Richland,2,False,False,,
3c67b9e3-0cbc-44b2-99e0-2bcf12f22ff4,4/10/2014 12:00:00 AM,5/15/2014 12:00:00 AM,25083232030000,25,83,"Continental Resources, Inc",Stoney Butte 5-17H,47.776,-104.56338,NAD27,10379.0,13027421.0,0.0,Montana,Richland,2,False,False,,
9cac6e04-a739-458f-ae8f-bdb29b75ea57,5/9/2014 9:28:00 PM,5/16/2014 10:03:00 AM,25085219200000,25,85,"Continental Resources, Inc",Briske 1-20H,48.251729,-104.205641,NAD83,10328.0,10028880.0,0.0,Montana,Roosevelt,2,False,False,,
89a66494-1fec-4f24-b008-b71ee97d984c,5/15/2014 12:00:00 AM,5/20/2014 12:00:00 AM,25083232090000,25,83,"Continental Resources, Inc",Colleen 1-29H,47.9764,-104.6444,NAD27,9900.0,3567282.0,0.0,Montana,Richland,2,False,False,,
d43737bd-f694-4ed4-b18b-527266d5b301,5/20/2014 12:00:00 AM,5/23/2014 12:00:00 AM,25083232100000,25,83,"Continental Resources, Inc",Colleen 2-29H,47.9726,-104.63508,NAD27,9900.0,3510030.0,0.0,Montana,Richland,2,False,False,,
e950ea5c-2a49-4edf-86f6-dd4570c2695e,5/23/2014 12:00:00 PM,5/23/2014 12:00:00 PM,25027212640000,25,27,WPX Energy,CONCORD 14-17-10-1,46.989422,-109.551707,NAD27,2455.0,37593.0,0.0,Montana,Fergus,2,False,False,,
